[{"id":"f4e93611-ce8d-4aa3-a1dc-c520daa3c7f5","region":"REGION ARICA Y PARINACOTA","nombre":"1RA. COM. ARICA","tipo_unidad":"COMISARIA","latitude":-18.4781864934,"longitude":-70.3116048842,"ano":"2014"},{"id":"5d3e3172-5877-45da-bec1-99fffa9c022b","region":"REGION ARICA Y PARINACOTA","nombre":"2DA. COM. PUTRE","tipo_unidad":"COMISARIA","latitude":-18.195069385,"longitude":-69.559351014,"ano":"2014"},{"id":"36106c2d-f2c3-4291-8508-c02be3150bc5","region":"REGION ARICA Y PARINACOTA","nombre":"3RA. COM. ARICA","tipo_unidad":"COMISARIA","latitude":-18.47043,"longitude":-70.29381,"ano":"2014"},{"id":"7e0851a4-5ecf-40c5-bb64-11521518a4bb","region":"REGION ARICA Y PARINACOTA","nombre":"RETEN ALCERRECA (F)","tipo_unidad":"RETEN","latitude":-17.992306253,"longitude":-69.660406386,"ano":"2014"},{"id":"99f1a2ac-4ce3-4d8b-bf9a-270f8b45d997","region":"REGION ARICA Y PARINACOTA","nombre":"RETEN CAQUENA (F)","tipo_unidad":"RETEN","latitude":-18.054582827,"longitude":-69.201796215,"ano":"2014"},{"id":"26199767-6101-41f5-958b-51a8034c44a2","region":"REGION ARICA Y PARINACOTA","nombre":"RETEN CENTRAL (F)","tipo_unidad":"RETEN","latitude":-18.361654723,"longitude":-69.959276389,"ano":"2014"},{"id":"aebf5782-b4ec-416c-b18b-40c1bfb39821","region":"REGION ARICA Y PARINACOTA","nombre":"RETEN C.CHAPIQUINA","tipo_unidad":"RETEN","latitude":-18.371896629,"longitude":-69.548415354,"ano":"2014"},{"id":"f5301a40-101b-42b6-9e3c-1e22d7a2c607","region":"REGION ARICA Y PARINACOTA","nombre":"RETEN CHILCAYA (F)","tipo_unidad":"RETEN","latitude":-18.79402893,"longitude":-69.084711776,"ano":"2014"},{"id":"d7acd5dd-851a-4e01-81a3-15315b2b3559","region":"REGION ARICA Y PARINACOTA","nombre":"RETEN CHUCUYO (F)","tipo_unidad":"RETEN","latitude":-18.218535624,"longitude":-69.321509389,"ano":"2014"},{"id":"5504cd90-67e2-4ed3-acae-b24f8dddaab2","region":"REGION ARICA Y PARINACOTA","nombre":"RETEN CODPA","tipo_unidad":"RETEN","latitude":-18.833653146,"longitude":-69.744262734,"ano":"2014"},{"id":"c81385f3-6dc6-412d-b357-8be6a66276b6","region":"REGION ARICA Y PARINACOTA","nombre":"RETEN GUALLATIRE (F)","tipo_unidad":"RETEN","latitude":-18.497253458,"longitude":-69.154283807,"ano":"2014"},{"id":"5c853087-dbd7-4e05-a271-d81e7e0be092","region":"REGION ARICA Y PARINACOTA","nombre":"RETEN POCONCHILE (M.C.)","tipo_unidad":"RETEN","latitude":-18.4524921822,"longitude":-70.0667484034,"ano":"2014"},{"id":"4913763e-3e51-452b-bbd8-c14a143d04b9","region":"REGION ARICA Y PARINACOTA","nombre":"RETEN SAN MIGUEL DE AZAPA","tipo_unidad":"RETEN","latitude":-18.518914907,"longitude":-70.179583587,"ano":"2014"},{"id":"8612fa5c-e728-49d3-9e08-5ce188008112","region":"REGION ARICA Y PARINACOTA","nombre":"RETEN TACORA (F)","tipo_unidad":"RETEN","latitude":-17.771957192,"longitude":-69.72439765,"ano":"2014"},{"id":"7129490d-e046-4ce7-8d4c-111523b3444b","region":"REGION ARICA Y PARINACOTA","nombre":"4TA. COM. CHACALLUTA (F)","tipo_unidad":"COMISARIA","latitude":-18.361667,"longitude":-70.304442,"ano":"2014"},{"id":"65c56c54-36cc-4f32-9198-2dbb61979379","region":"REGION ARICA Y PARINACOTA","nombre":"SCOM. CHINCHORRO NORTE","tipo_unidad":"SUBCOMISARIA","latitude":-18.44581,"longitude":-70.29279,"ano":"2014"},{"id":"e216b6a4-fb2f-434d-8aaa-85d148c790ba","region":"REGION ARICA Y PARINACOTA","nombre":"TCIA. CARRET. ARICA","tipo_unidad":"TENENCIA CARRETERAS","latitude":-19.160613,"longitude":-70.179247,"ano":"2014"},{"id":"4df75b2e-0db7-4077-959a-99024809671d","region":"REGION ARICA Y PARINACOTA","nombre":"TCIA. CHUNGARA (F)","tipo_unidad":"TENENCIA","latitude":-18.281647555,"longitude":-69.138235335,"ano":"2014"},{"id":"7667faef-100f-40ad-8b62-eb623f244705","region":"REGION ARICA Y PARINACOTA","nombre":"TCIA. VISVIRI (F)","tipo_unidad":"TENENCIA","latitude":-17.59501412,"longitude":-69.47702097,"ano":"2014"},{"id":"c4534e6a-0e59-4b78-9db2-9da24a610d40","region":"REGION LOS RIOS","nombre":"4TA. COM. RIO BUENO","tipo_unidad":"COMISARIA","latitude":-40.335513,"longitude":-72.957899,"ano":"2014"},{"id":"e6f3ed12-9f95-4fad-870f-cdc3eb1e44dc","region":"REGION LOS RIOS","nombre":"RETEN NIEBLA","tipo_unidad":"RETEN","latitude":-39.865101346,"longitude":-73.394399733,"ano":"2014"},{"id":"5f1bdabf-6b86-47a7-a1ed-f500fe842cdc","region":"REGION LOS RIOS","nombre":"RETEN VIVANCO","tipo_unidad":"RETEN","latitude":-40.375031501,"longitude":-72.621297341,"ano":"2014"},{"id":"a4751280-d692-4399-b7c0-c053f122b4ef","region":"REGION LOS RIOS","nombre":"TCIA. SUBTTE. RUBEN MOGOLLONES A.","tipo_unidad":"TENENCIA","latitude":-39.83304,"longitude":-73.20145,"ano":"2014"},{"id":"ce66ad40-3493-4f22-a974-adaf358af0a3","region":"REGION LOS RIOS","nombre":"1RA. COM. VALDIVIA","tipo_unidad":"COMISARIA","latitude":-39.81787,"longitude":-73.23519,"ano":"2014"},{"id":"bd9e14b9-07f2-48a7-9538-cca90c532a11","region":"REGION LOS RIOS","nombre":"2DA. COM. LOS LAGOS","tipo_unidad":"COMISARIA","latitude":-39.862172,"longitude":-72.812468,"ano":"2014"},{"id":"26f23186-b879-4306-80df-b1dd2c3dab7b","region":"REGION LOS RIOS","nombre":"3RA. COM. LA UNION","tipo_unidad":"COMISARIA","latitude":-40.29325,"longitude":-73.08435,"ano":"2014"},{"id":"281f6c25-d173-4885-ada2-711a320ffbb3","region":"REGION LOS RIOS","nombre":"5TA. COM. PANGUIPULLI","tipo_unidad":"COMISARIA","latitude":-39.641206,"longitude":-72.336915,"ano":"2014"},{"id":"77597da9-ccb0-404a-9677-4907a7beec74","region":"REGION LOS RIOS","nombre":"AVANZADA CARRIRINE (F)","tipo_unidad":"AVANZADA","latitude":-39.776401952,"longitude":-71.700881147,"ano":"2014"},{"id":"97e096d3-a0b2-44e8-b8bd-7a121a2e3317","region":"REGION LOS RIOS","nombre":"AVANZADA LILPELA (T.F.)","tipo_unidad":"AVANZADA","latitude":-40.231851328,"longitude":-71.95656859,"ano":"2014"},{"id":"83f9cff5-7134-47ea-9cac-d6adc41a6cd5","region":"REGION LOS RIOS","nombre":"RETEN ANTILHUE","tipo_unidad":"RETEN","latitude":-39.805309642,"longitude":-72.960065068,"ano":"2014"},{"id":"d27c60b0-684f-4ba3-9847-cfc1dc1c79f3","region":"REGION LOS RIOS","nombre":"RETEN CARIMALLIN","tipo_unidad":"RETEN","latitude":-40.555218,"longitude":-72.774003,"ano":"2014"},{"id":"8dac8168-3666-44e5-9481-a65ecc27d4be","region":"REGION LOS RIOS","nombre":"RETEN CATAMUTUN","tipo_unidad":"RETEN","latitude":-40.158705996,"longitude":-73.129846758,"ano":"2014"},{"id":"95772085-9a9a-4d90-829d-9571c39c1160","region":"REGION LOS RIOS","nombre":"RETEN CHOSHUENCO","tipo_unidad":"RETEN","latitude":-39.837583903,"longitude":-72.083745519,"ano":"2014"},{"id":"8a0c8c80-8c49-4aa2-b9e8-cda44ec57a44","region":"REGION LOS RIOS","nombre":"RETEN CONARIPE","tipo_unidad":"RETEN","latitude":-39.566540394,"longitude":-72.008385032,"ano":"2014"},{"id":"6c195e0b-2f7c-4197-85e0-d81c6b0c06b7","region":"REGION LOS RIOS","nombre":"RETEN CUNCO MASHUE","tipo_unidad":"RETEN","latitude":-40.268196668,"longitude":-73.295731406,"ano":"2014"},{"id":"474de7a4-2efc-4855-824b-656e3d0ccae7","region":"REGION LOS RIOS","nombre":"RETEN DIUMEN","tipo_unidad":"RETEN","latitude":-40.307477113,"longitude":-72.692354715,"ano":"2014"},{"id":"a1029728-faa4-4ce9-b048-585cf182c260","region":"REGION LOS RIOS","nombre":"RETEN ISLA TEJAS","tipo_unidad":"RETEN","latitude":-39.81538,"longitude":-73.25789,"ano":"2014"},{"id":"507c0fee-24dd-4470-b9ff-a0a4e6b10fcd","region":"REGION LOS RIOS","nombre":"RETEN LLIFEN (F)","tipo_unidad":"RETEN","latitude":-40.198082568,"longitude":-72.258737041,"ano":"2014"},{"id":"f9d207fd-3294-4b9a-a8f2-ee95d7df1bcb","region":"REGION LOS RIOS","nombre":"RETEN MALALHUE","tipo_unidad":"RETEN","latitude":-39.544654499,"longitude":-72.502445644,"ano":"2014"},{"id":"355ba0b1-6741-4ce6-88e0-aedd4f1ff03d","region":"REGION LOS RIOS","nombre":"RETEN MANTILHUE","tipo_unidad":"RETEN","latitude":-40.620412449,"longitude":-72.492781087,"ano":"2014"},{"id":"95339dc6-d07e-483c-9767-b77c9f069950","region":"REGION LOS RIOS","nombre":"RETEN MEHUIN","tipo_unidad":"RETEN","latitude":-39.431048223,"longitude":-73.213279597,"ano":"2014"},{"id":"be3bb743-e50b-4ed8-ac98-9ed28dcb9024","region":"REGION LOS RIOS","nombre":"RETEN NELTUME","tipo_unidad":"RETEN","latitude":-39.851041843,"longitude":-71.945500556,"ano":"2014"},{"id":"536eb8dd-aa54-462e-b009-b6bd8197f6d3","region":"REGION LOS RIOS","nombre":"RETEN PICHIRROPULLI","tipo_unidad":"RETEN","latitude":-40.149733476,"longitude":-72.893053718,"ano":"2014"},{"id":"02e5e585-453a-4d44-bd8f-1e7af5f1ed7a","region":"REGION LOS RIOS","nombre":"RETEN PUERTO NUEVO","tipo_unidad":"RETEN","latitude":-40.243249568,"longitude":-72.579708481,"ano":"2014"},{"id":"15ad7701-239e-4b04-8d24-aa4a55952c9c","region":"REGION LOS RIOS","nombre":"RETEN PUNUCAPA","tipo_unidad":"RETEN","latitude":-39.756764635,"longitude":-73.264437068,"ano":"2014"},{"id":"6b7cb8fa-213d-45e0-9a7e-cd9c3cc87447","region":"REGION LOS RIOS","nombre":"RETEN REUMEN","tipo_unidad":"RETEN","latitude":-39.987558405,"longitude":-72.833310312,"ano":"2014"},{"id":"365f1eb7-01a1-48f2-a283-f11d04c2719c","region":"REGION LOS RIOS","nombre":"RETEN RINIHUE","tipo_unidad":"RETEN","latitude":-39.819646483,"longitude":-72.442840378,"ano":"2014"},{"id":"875b539b-ac12-4564-9cf5-ae6225a4ed96","region":"REGION LOS RIOS","nombre":"RETEN RININAHUE (F)","tipo_unidad":"RETEN","latitude":-40.322200974,"longitude":-72.211218209,"ano":"2014"},{"id":"59a76a15-e9e3-4ef2-b08a-aa036ed27bc3","region":"REGION LOS RIOS","nombre":"SCOM. GENERAL OSCAR CRISTI G.","tipo_unidad":"SUBCOMISARIA","latitude":-39.83878,"longitude":-73.22762,"ano":"2014"},{"id":"4c39d03e-1a52-4493-96a0-8b0aa2afd980","region":"REGION LOS RIOS","nombre":"SCOM. LANCO","tipo_unidad":"SUBCOMISARIA","latitude":-39.452303,"longitude":-72.772399,"ano":"2014"},{"id":"8d8c4dc3-a99b-4159-ad4c-cbb87f995328","region":"REGION LOS RIOS","nombre":"SCOM. PAILLACO","tipo_unidad":"SUBCOMISARIA","latitude":-40.069406,"longitude":-72.873057,"ano":"2014"},{"id":"8f4dfe19-b1a3-4f9f-b63d-b4059489509d","region":"REGION LOS RIOS","nombre":"TCIA. CARRET. VALDIVIA","tipo_unidad":"TENENCIA CARRETERAS","latitude":-40.171812,"longitude":-72.900682,"ano":"2014"},{"id":"d8aa5c46-4c81-4714-a3f5-128896b5723e","region":"REGION LOS RIOS","nombre":"TCIA. CORRAL (M)","tipo_unidad":"TENENCIA","latitude":-39.8890662246,"longitude":-73.4264571712,"ano":"2014"},{"id":"d854d884-dc6a-4880-9d57-b4fb4aff57df","region":"REGION LOS RIOS","nombre":"TCIA. FUTRONO","tipo_unidad":"TENENCIA","latitude":-40.1278359731,"longitude":-72.3938395892,"ano":"2014"},{"id":"22e8fa00-ed2d-4f50-8925-5ddd075f4e48","region":"REGION LOS RIOS","nombre":"TCIA. LAGO RANCO","tipo_unidad":"TENENCIA","latitude":-40.31998,"longitude":-72.476852,"ano":"2014"},{"id":"64e8c01d-fb61-4a30-9f35-512ae0e0f976","region":"REGION LOS RIOS","nombre":"TCIA. LIQUINE (F)","tipo_unidad":"TENENCIA","latitude":-39.747578164,"longitude":-71.85547217,"ano":"2014"},{"id":"98009e0b-d557-4f98-bdee-6eccb10daace","region":"REGION LOS RIOS","nombre":"TCIA. LOS JAZMINES","tipo_unidad":"TENENCIA","latitude":-39.82154,"longitude":-73.21096,"ano":"2014"},{"id":"5405ab5c-a836-4382-906d-4c446eb8372a","region":"REGION LOS RIOS","nombre":"TCIA. MAFIL","tipo_unidad":"TENENCIA","latitude":-39.666573,"longitude":-72.948027,"ano":"2014"},{"id":"a6542354-6ccb-4a79-8749-320cbc583427","region":"REGION LOS RIOS","nombre":"TCIA. PIRIHUEICO (F)","tipo_unidad":"TENENCIA","latitude":-40.096905076,"longitude":-71.678564905,"ano":"2014"},{"id":"d5803970-39da-494f-be8e-c2c221acc295","region":"REGION LOS RIOS","nombre":"SCOM. SAN JOSE DE LA MARIQUINA","tipo_unidad":"SUBCOMISARIA","latitude":-39.5368154755,"longitude":-72.9577236383,"ano":"2014"},{"id":"34d274f5-46fe-47bc-baf8-ab0d021c60f6","region":"REGION METROPOLITANA DE SANTIAGO","nombre":"26A. COM. PUDAHUEL","tipo_unidad":"COMISARIA","latitude":-33.448449,"longitude":-70.739676,"ano":"2014"},{"id":"3c264066-2b9c-4d31-9651-94b05526fea9","region":"REGION METROPOLITANA DE SANTIAGO","nombre":"10A. COM. LA CISTERNA","tipo_unidad":"COMISARIA","latitude":-33.540997,"longitude":-70.665454,"ano":"2014"},{"id":"7ba0a131-9a9c-4af3-90e3-0526fcadaf14","region":"REGION METROPOLITANA DE SANTIAGO","nombre":"12A. COM. SAN MIGUEL","tipo_unidad":"COMISARIA","latitude":-33.48971,"longitude":-70.65089,"ano":"2014"},{"id":"70551c3c-b96a-4596-bd3f-0f8ec4367ca9","region":"REGION METROPOLITANA DE SANTIAGO","nombre":"13A. COM. LA GRANJA","tipo_unidad":"COMISARIA","latitude":-33.53528,"longitude":-70.61347,"ano":"2014"},{"id":"88900946-08ea-4e85-a8d6-1764b20c9a23","region":"REGION METROPOLITANA DE SANTIAGO","nombre":"62A. COM. SAN BERNARDO","tipo_unidad":"COMISARIA","latitude":-33.594302,"longitude":-70.686779,"ano":"2014"},{"id":"11711597-d36a-49f3-9ce9-178f4f8ed2de","region":"REGION METROPOLITANA DE SANTIAGO","nombre":"15A. COM. BUIN","tipo_unidad":"COMISARIA","latitude":-33.728171,"longitude":-70.74482,"ano":"2014"},{"id":"e86b3b66-f28b-4212-8249-ae6c81e65bc7","region":"REGION METROPOLITANA DE SANTIAGO","nombre":"16A. COM. LA REINA","tipo_unidad":"COMISARIA","latitude":-33.44148,"longitude":-70.54426,"ano":"2014"},{"id":"b75db2c2-df7c-40dd-aaa7-2c7ea3d21ed4","region":"REGION METROPOLITANA DE SANTIAGO","nombre":"17A. COM. LAS CONDES","tipo_unidad":"COMISARIA","latitude":-33.394174,"longitude":-70.554086,"ano":"2014"},{"id":"283272eb-5a3e-4013-936f-537237d7532b","region":"REGION METROPOLITANA DE SANTIAGO","nombre":"18A. COM. NUNOA","tipo_unidad":"COMISARIA","latitude":-33.45336,"longitude":-70.57571,"ano":"2014"},{"id":"7c9d3389-a7c1-4905-9eab-603a7ae1620f","region":"REGION METROPOLITANA DE SANTIAGO","nombre":"19A. COM. PROVIDENCIA","tipo_unidad":"COMISARIA","latitude":-33.43243,"longitude":-70.62009,"ano":"2014"},{"id":"de1fbb54-dee2-45c3-a58f-77dcbc3ac304","region":"REGION METROPOLITANA DE SANTIAGO","nombre":"1RA. COM. SANTIAGO","tipo_unidad":"COMISARIA","latitude":-33.43587,"longitude":-70.64756,"ano":"2014"},{"id":"ede4e470-a28d-453c-b361-8e152ce162c3","region":"REGION METROPOLITANA DE SANTIAGO","nombre":"20A. COM. P. ALTO","tipo_unidad":"COMISARIA","latitude":-33.60743,"longitude":-70.57532,"ano":"2014"},{"id":"9a9faa19-e97d-4fe2-a2bd-bb65c69710a0","region":"REGION METROPOLITANA DE SANTIAGO","nombre":"21A.COM. ESTACION CENTRAL","tipo_unidad":"COMISARIA","latitude":-33.45131,"longitude":-70.69242,"ano":"2014"},{"id":"35546a99-72d3-42cb-bc49-0e92858077cd","region":"REGION METROPOLITANA DE SANTIAGO","nombre":"22A. COM. QUINTA NORMAL","tipo_unidad":"COMISARIA","latitude":-33.4298448173,"longitude":-70.7146509852,"ano":"2014"},{"id":"ee787a71-58f8-4009-aecc-071dc6434b43","region":"REGION METROPOLITANA DE SANTIAGO","nombre":"23A. COM. TALAGANTE","tipo_unidad":"COMISARIA","latitude":-33.670651,"longitude":-70.938787,"ano":"2014"},{"id":"05a335ca-38b5-4903-aaa8-6b1a98468ffb","region":"REGION METROPOLITANA DE SANTIAGO","nombre":"24A. COM. MELIPILLA","tipo_unidad":"COMISARIA","latitude":-33.68794,"longitude":-71.215386,"ano":"2014"},{"id":"1e428147-1da4-4aab-8d16-97d5e9aebe36","region":"REGION METROPOLITANA DE SANTIAGO","nombre":"25A. COM. MAIPU","tipo_unidad":"COMISARIA","latitude":-33.507197,"longitude":-70.754619,"ano":"2014"},{"id":"377442bf-1d08-4149-8937-3c68bf8fdacb","region":"REGION METROPOLITANA DE SANTIAGO","nombre":"2DA. COM. SANTIAGO","tipo_unidad":"COMISARIA","latitude":-33.45455,"longitude":-70.6681,"ano":"2014"},{"id":"9edacd28-d6f4-4af8-ad5f-5f02f369b454","region":"REGION METROPOLITANA DE SANTIAGO","nombre":"31A. COM. SAN RAMON","tipo_unidad":"COMISARIA","latitude":-33.546011,"longitude":-70.644815,"ano":"2014"},{"id":"5df0a463-b53a-4c74-be1c-759d3fbcfaa6","region":"REGION METROPOLITANA DE SANTIAGO","nombre":"33A. COM. NUNOA","tipo_unidad":"COMISARIA","latitude":-33.4708,"longitude":-70.61386,"ano":"2014"},{"id":"1420b6d3-5f70-4979-901d-7101ba8bd286","region":"REGION METROPOLITANA DE SANTIAGO","nombre":"36A. COM. LA FLORIDA","tipo_unidad":"COMISARIA","latitude":-33.539667,"longitude":-70.597153,"ano":"2014"},{"id":"e93aba17-9f78-43ef-b126-a12c1a537dff","region":"REGION METROPOLITANA DE SANTIAGO","nombre":"37A. COM. VITACURA","tipo_unidad":"COMISARIA","latitude":-33.38941,"longitude":-70.55449,"ano":"2014"},{"id":"342e8d52-2f1f-469e-8c79-d857a959ccbf","region":"REGION METROPOLITANA DE SANTIAGO","nombre":"38A. COM. PUENTE ALTO","tipo_unidad":"COMISARIA","latitude":-33.57892,"longitude":-70.58151,"ano":"2014"},{"id":"0a32e830-99ac-4760-bb4d-8365ac1f7cb8","region":"REGION METROPOLITANA DE SANTIAGO","nombre":"39A. COM. EL BOSQUE","tipo_unidad":"COMISARIA","latitude":-33.565682,"longitude":-70.666083,"ano":"2014"},{"id":"3a7312d8-b760-46b1-84ed-08c28d658a42","region":"REGION METROPOLITANA DE SANTIAGO","nombre":"3RA. COM. SANTIAGO","tipo_unidad":"COMISARIA","latitude":-33.44196,"longitude":-70.65855,"ano":"2014"},{"id":"365be832-ba51-47df-a3e4-f602ab03361e","region":"REGION METROPOLITANA DE SANTIAGO","nombre":"41A. COM. LA PINTANA","tipo_unidad":"COMISARIA","latitude":-33.58296,"longitude":-70.631528,"ano":"2014"},{"id":"aea95060-566d-4ca6-8b8a-416eec656aea","region":"REGION METROPOLITANA DE SANTIAGO","nombre":"43A. COM. PENALOLEN","tipo_unidad":"COMISARIA","latitude":-33.478178,"longitude":-70.544176,"ano":"2014"},{"id":"f2500e96-d49c-48f5-9d4c-01eba3cf75fc","region":"REGION METROPOLITANA DE SANTIAGO","nombre":"44A. COM. LO PRADO","tipo_unidad":"COMISARIA","latitude":-33.442814,"longitude":-70.715861,"ano":"2014"},{"id":"18f41810-d90c-47ea-b022-b18f29189014","region":"REGION METROPOLITANA DE SANTIAGO","nombre":"45A. COM. CERRO NAVIA","tipo_unidad":"COMISARIA","latitude":-33.422742,"longitude":-70.742827,"ano":"2014"},{"id":"623fc52b-b22d-41e1-912e-6292e5bcd0c8","region":"REGION METROPOLITANA DE SANTIAGO","nombre":"46A. COM. MACUL","tipo_unidad":"COMISARIA","latitude":-33.49011,"longitude":-70.60822,"ano":"2014"},{"id":"4283e0f5-b232-4b7f-88d8-cd9193fedf30","region":"REGION METROPOLITANA DE SANTIAGO","nombre":"49A. COM. QUILICURA","tipo_unidad":"COMISARIA","latitude":-33.3656,"longitude":-70.74739,"ano":"2014"},{"id":"404d3b97-1847-4fd1-841a-3fef91fe0ed9","region":"REGION METROPOLITANA DE SANTIAGO","nombre":"4TA. COM. SANTIAGO","tipo_unidad":"COMISARIA","latitude":-33.46533,"longitude":-70.64561,"ano":"2014"},{"id":"50ffe679-daa8-41b6-be8b-c1adacfd87ef","region":"REGION METROPOLITANA DE SANTIAGO","nombre":"50A. COM. SAN JOAQUIN","tipo_unidad":"COMISARIA","latitude":-33.48448,"longitude":-70.62988,"ano":"2014"},{"id":"eee2827f-e659-4498-ad80-c1b2330922b8","region":"REGION METROPOLITANA DE SANTIAGO","nombre":"51A. COM. PEDRO AGUIRRE CERDA","tipo_unidad":"COMISARIA","latitude":-33.494167,"longitude":-70.684469,"ano":"2014"},{"id":"996c2493-f3ca-432f-895e-64c0da21f583","region":"REGION METROPOLITANA DE SANTIAGO","nombre":"52A. COM. RINCONADA DE MAIPU","tipo_unidad":"COMISARIA","latitude":-33.511141,"longitude":-70.790934,"ano":"2014"},{"id":"e1c5765e-0063-4820-8119-b07fd44c1175","region":"REGION METROPOLITANA DE SANTIAGO","nombre":"54A. COM. HUECHURABA","tipo_unidad":"COMISARIA","latitude":-33.37512,"longitude":-70.63737,"ano":"2014"},{"id":"28acce18-7c40-478c-8571-2cb7daa68d02","region":"REGION METROPOLITANA DE SANTIAGO","nombre":"55A. COM. SUBOF. CRISTIAN VERA C.","tipo_unidad":"COMISARIA","latitude":-33.456552,"longitude":-70.755214,"ano":"2014"},{"id":"4bd5ff65-5ae8-4f1d-a0da-d9f921a6e5a9","region":"REGION METROPOLITANA DE SANTIAGO","nombre":"5TA. COM. CONCHALI","tipo_unidad":"COMISARIA","latitude":-33.390018,"longitude":-70.660168,"ano":"2014"},{"id":"aec936c8-7b0d-4797-ab62-598d57864684","region":"REGION METROPOLITANA DE SANTIAGO","nombre":"6TA. COM. RECOLETA","tipo_unidad":"COMISARIA","latitude":-33.40949,"longitude":-70.64198,"ano":"2014"},{"id":"2bb39e78-e8dc-439d-a76e-80d5a8ec5761","region":"REGION METROPOLITANA DE SANTIAGO","nombre":"7MA. COM. RENCA","tipo_unidad":"COMISARIA","latitude":-33.40393,"longitude":-70.70447,"ano":"2014"},{"id":"d919b090-381a-43e6-8bb4-d08e0da9dbb0","region":"REGION METROPOLITANA DE SANTIAGO","nombre":"8VA. COM. COLINA","tipo_unidad":"COMISARIA","latitude":-33.204108,"longitude":-70.675899,"ano":"2014"},{"id":"cc53f7f5-6b95-4c6e-942a-551481b27bb2","region":"REGION METROPOLITANA DE SANTIAGO","nombre":"9NA. COM. INDEPENDENCIA","tipo_unidad":"COMISARIA","latitude":-33.40677,"longitude":-70.65722,"ano":"2014"},{"id":"df541ab0-4da1-43de-bd9a-d851ad82eb46","region":"REGION METROPOLITANA DE SANTIAGO","nombre":"AVANZADA CRUZ DE PIEDRA","tipo_unidad":"AVANZADA","latitude":-34.171522546,"longitude":-69.966114544,"ano":"2014"},{"id":"e7fd9860-34bb-4a6d-bfd9-775ba6c831ba","region":"REGION METROPOLITANA DE SANTIAGO","nombre":"TCIA. ALTO JAHUEL","tipo_unidad":"TENENCIA","latitude":-33.732001572,"longitude":-70.684043617,"ano":"2014"},{"id":"5e2aa8b1-1a5a-492f-ac9c-ccfc1298ae66","region":"REGION METROPOLITANA DE SANTIAGO","nombre":"TCIA. BOLLENAR","tipo_unidad":"TENENCIA","latitude":-33.568960669,"longitude":-71.211366241,"ano":"2014"},{"id":"6a3ae53e-4079-474c-90d6-c12654b9054b","region":"REGION METROPOLITANA DE SANTIAGO","nombre":"RETEN CALEU","tipo_unidad":"RETEN","latitude":-33.005249,"longitude":-70.993459,"ano":"2014"},{"id":"b6ec409a-a3c4-411d-87b0-2c2f03a07efc","region":"REGION METROPOLITANA DE SANTIAGO","nombre":"RETEN CASA MONEDA","tipo_unidad":"RETEN","latitude":-33.444344,"longitude":-70.685496,"ano":"2014"},{"id":"d9f8417a-8aba-41ac-94ef-e32e1f65225c","region":"REGION METROPOLITANA DE SANTIAGO","nombre":"TCIA. CHAMPA","tipo_unidad":"TENENCIA","latitude":-33.854985788,"longitude":-70.763587038,"ano":"2014"},{"id":"6e2be103-93ae-480f-ad56-150baa7cc285","region":"REGION METROPOLITANA DE SANTIAGO","nombre":"RETEN CODIGUA","tipo_unidad":"RETEN","latitude":-33.757167899,"longitude":-71.324024131,"ano":"2014"},{"id":"e75f878f-5b1f-40a5-91fd-45eae9994a3b","region":"REGION METROPOLITANA DE SANTIAGO","nombre":"TCIA. EL BOSQUE PONIENTE","tipo_unidad":"TENENCIA","latitude":-33.551911,"longitude":-70.688314,"ano":"2014"},{"id":"a94deda4-6cf9-442f-8103-00cae34d836a","region":"REGION METROPOLITANA DE SANTIAGO","nombre":"SCOM. EL CASTILLO","tipo_unidad":"SUBCOMISARIA","latitude":-33.59475,"longitude":-70.610684,"ano":"2014"},{"id":"6ae6e5e1-1ae7-4914-95b2-8804057e2485","region":"REGION METROPOLITANA DE SANTIAGO","nombre":"RETEN EL PAICO","tipo_unidad":"RETEN","latitude":-33.688836,"longitude":-71.053481,"ano":"2014"},{"id":"3ed536ef-fd52-46d8-8412-8073af32c143","region":"REGION METROPOLITANA DE SANTIAGO","nombre":"RETEN EL PERAL","tipo_unidad":"RETEN","latitude":-33.5752,"longitude":-70.57281,"ano":"2014"},{"id":"7aa2a5ed-a414-4015-ba2f-9eeecbe9be87","region":"REGION METROPOLITANA DE SANTIAGO","nombre":"RETEN ENEAS GONEL","tipo_unidad":"RETEN","latitude":-33.385206,"longitude":-70.658801,"ano":"2014"},{"id":"bd6e95f9-d3cf-4398-a077-e595b99a95c6","region":"REGION METROPOLITANA DE SANTIAGO","nombre":"RETEN FARELLONES","tipo_unidad":"RETEN","latitude":-33.352354421,"longitude":-70.3155405,"ano":"2014"},{"id":"2f8a42c4-c46b-4ffe-ad76-f99101cd71ec","region":"REGION METROPOLITANA DE SANTIAGO","nombre":"RETEN HUELQUEN","tipo_unidad":"RETEN","latitude":-33.83244324,"longitude":-70.641839448,"ano":"2014"},{"id":"cc8b2314-0b35-4035-8c4a-0edb4430cec9","region":"REGION METROPOLITANA DE SANTIAGO","nombre":"RETEN HUERTOS FAMILIARES","tipo_unidad":"RETEN","latitude":-33.136160023,"longitude":-70.798437922,"ano":"2014"},{"id":"8de30de3-e597-4cd2-89df-9bc1d86d2df4","region":"REGION METROPOLITANA DE SANTIAGO","nombre":"RETEN LA ISLITA","tipo_unidad":"RETEN","latitude":-33.747324,"longitude":-70.865866,"ano":"2014"},{"id":"a0693698-8bc0-420d-a1ec-d71592060bd1","region":"REGION METROPOLITANA DE SANTIAGO","nombre":"SCOM. LAS VIZCACHAS","tipo_unidad":"SUBCOMISARIA","latitude":-33.59928,"longitude":-70.53069,"ano":"2014"},{"id":"4e9bceb0-d4e6-4a06-8551-89cc63506172","region":"REGION METROPOLITANA DE SANTIAGO","nombre":"TCIA. LINDEROS","tipo_unidad":"TENENCIA","latitude":-33.75982,"longitude":-70.735632,"ano":"2014"},{"id":"44e1bcd8-c215-4ad4-ad18-f1dcf4e965f6","region":"REGION METROPOLITANA DE SANTIAGO","nombre":"RETEN LOICA","tipo_unidad":"RETEN","latitude":-33.976332543,"longitude":-71.46973417,"ano":"2014"},{"id":"a989038d-7c31-4c90-99aa-055fc009ae07","region":"REGION METROPOLITANA DE SANTIAGO","nombre":"RETEN MALLARAUCO","tipo_unidad":"RETEN","latitude":-33.584781077,"longitude":-70.987087105,"ano":"2014"},{"id":"53f52c82-5412-47fe-91f1-7b22f9d7bc73","region":"REGION METROPOLITANA DE SANTIAGO","nombre":"RETEN PINTUE","tipo_unidad":"RETEN","latitude":-33.877285223,"longitude":-70.88485378,"ano":"2014"},{"id":"dfe94a29-9280-4832-aa7d-dfd27743be06","region":"REGION METROPOLITANA DE SANTIAGO","nombre":"RETEN POMAIRE","tipo_unidad":"RETEN","latitude":-33.65074456,"longitude":-71.151176696,"ano":"2014"},{"id":"f437e03c-608e-4883-a9fe-90cd8659f2f1","region":"REGION METROPOLITANA DE SANTIAGO","nombre":"RETEN RUNGUE","tipo_unidad":"RETEN","latitude":-33.00629527,"longitude":-70.889069809,"ano":"2014"},{"id":"8a9dbba6-8e75-4190-8ab8-0ea6c2b54a7b","region":"REGION METROPOLITANA DE SANTIAGO","nombre":"RETEN SAN GABRIEL (F)","tipo_unidad":"RETEN","latitude":-33.782289768,"longitude":-70.239351269,"ano":"2014"},{"id":"043196d3-087e-480b-97fe-0103967e7479","region":"REGION METROPOLITANA DE SANTIAGO","nombre":"TCIA. VILUCO","tipo_unidad":"TENENCIA","latitude":-33.782423844,"longitude":-70.791540572,"ano":"2014"},{"id":"653e44ac-50e4-45a7-843d-fae63dd1e648","region":"REGION METROPOLITANA DE SANTIAGO","nombre":"27A. COM. AEROPUERTO INTERNACIONAL","tipo_unidad":"COMISARIA","latitude":-33.404522,"longitude":-70.792887,"ano":"2014"},{"id":"9bdbf02b-efba-4cbd-a686-5bd5e32145ca","region":"REGION METROPOLITANA DE SANTIAGO","nombre":"61A. COM. CABO 2 PABLO SILVA P.","tipo_unidad":"COMISARIA","latitude":-33.51173,"longitude":-70.5651,"ano":"2014"},{"id":"c3e2e7f3-714e-4f30-95b2-f2b77aab7381","region":"REGION METROPOLITANA DE SANTIAGO","nombre":"SCOM. CARRASCAL","tipo_unidad":"SUBCOMISARIA","latitude":-33.421246,"longitude":-70.695834,"ano":"2014"},{"id":"d8d83fcd-94cd-4af2-ab9f-011c690af286","region":"REGION METROPOLITANA DE SANTIAGO","nombre":"SCOM. CERRILLOS","tipo_unidad":"SUBCOMISARIA","latitude":-33.4795981114,"longitude":-70.6879514421,"ano":"2014"},{"id":"8e8b88a6-51ae-4d25-9af5-4bf48aab598a","region":"REGION METROPOLITANA DE SANTIAGO","nombre":"SCOM. CONCHALI NORTE","tipo_unidad":"SUBCOMISARIA","latitude":-33.366991,"longitude":-70.689631,"ano":"2014"},{"id":"a6be9514-d10c-4508-a854-ce6699b24bc5","region":"REGION METROPOLITANA DE SANTIAGO","nombre":"63A. COM. CURACAVI","tipo_unidad":"COMISARIA","latitude":-33.401340798,"longitude":-71.120081186,"ano":"2014"},{"id":"c761ac62-35da-4756-ba5b-c12c665740f2","region":"REGION METROPOLITANA DE SANTIAGO","nombre":"SCOM. LOS QUILLAYES","tipo_unidad":"SUBCOMISARIA","latitude":-33.564376,"longitude":-70.593524,"ano":"2014"},{"id":"93c78e0a-3c41-456d-87b0-a01351da7194","region":"REGION METROPOLITANA DE SANTIAGO","nombre":"SCOM. MAIPO","tipo_unidad":"SUBCOMISARIA","latitude":-33.729496,"longitude":-70.774752,"ano":"2014"},{"id":"43464204-9e03-4bac-89b1-f7879f1fb7ca","region":"REGION METROPOLITANA DE SANTIAGO","nombre":"SCOM. MAIPU ORIENTE","tipo_unidad":"SUBCOMISARIA","latitude":-33.558223,"longitude":-70.789735,"ano":"2014"},{"id":"511c8b42-c7be-4258-bbe7-55bc27dc9d4e","region":"REGION METROPOLITANA DE SANTIAGO","nombre":"64A. COM. PAINE","tipo_unidad":"COMISARIA","latitude":-33.807869,"longitude":-70.741648,"ano":"2014"},{"id":"c071e8c7-eaf6-43eb-b15a-a4fdef408f43","region":"REGION METROPOLITANA DE SANTIAGO","nombre":"SCOM. PARQUE BRASIL","tipo_unidad":"SUBCOMISARIA","latitude":-33.51536,"longitude":-70.61473,"ano":"2014"},{"id":"5d850b8a-bb94-442a-8066-400bd2763804","region":"REGION METROPOLITANA DE SANTIAGO","nombre":"56A. COM. PENAFLOR","tipo_unidad":"COMISARIA","latitude":-33.60772,"longitude":-70.90167,"ano":"2014"},{"id":"0536fa73-9531-447e-8381-bffd19811649","region":"REGION METROPOLITANA DE SANTIAGO","nombre":"SCOM. PENALOLEN","tipo_unidad":"SUBCOMISARIA","latitude":-33.483386,"longitude":-70.56782,"ano":"2014"},{"id":"d0a9a3be-a6bc-4ffb-a9ab-6d52cd8758e6","region":"REGION METROPOLITANA DE SANTIAGO","nombre":"58A. COM. PB. ALESSANDRI","tipo_unidad":"COMISARIA","latitude":-33.469971,"longitude":-70.698969,"ano":"2014"},{"id":"4125141d-d99d-49e9-8bfe-721b4e044175","region":"REGION METROPOLITANA DE SANTIAGO","nombre":"SCOM. PUDAHUEL NORTE","tipo_unidad":"SUBCOMISARIA","latitude":-33.432656,"longitude":-70.759865,"ano":"2014"},{"id":"b4709f75-27e5-4b4c-9dfd-25cc41145a91","region":"REGION METROPOLITANA DE SANTIAGO","nombre":"SCOM. SAN GERONIMO","tipo_unidad":"SUBCOMISARIA","latitude":-33.62275,"longitude":-70.58907,"ano":"2014"},{"id":"2cb2609b-3e12-42ae-bdd0-9056a974c8e8","region":"REGION METROPOLITANA DE SANTIAGO","nombre":"SCOM. SAN JOSE DE MAIPO (F)","tipo_unidad":"SUBCOMISARIA","latitude":-33.636318,"longitude":-70.353175,"ano":"2014"},{"id":"3e2b18ad-72a9-4bfd-9b0f-b9d92367997d","region":"REGION METROPOLITANA DE SANTIAGO","nombre":"SCOM. V. MODERNA","tipo_unidad":"SUBCOMISARIA","latitude":-33.40488,"longitude":-70.67253,"ano":"2014"},{"id":"336ed643-4865-4071-8403-b680f9f25467","region":"REGION METROPOLITANA DE SANTIAGO","nombre":"34A. COM. VISTA ALEGRE","tipo_unidad":"COMISARIA","latitude":-33.49881765,"longitude":-70.73229265,"ano":"2014"},{"id":"f0bd305a-bd62-4b9c-9624-32d5bdb3c0eb","region":"REGION METROPOLITANA DE SANTIAGO","nombre":"TCIA. ALC. CARLOS VALDOVINOS","tipo_unidad":"TENENCIA","latitude":-33.48087,"longitude":-70.674299,"ano":"2014"},{"id":"ed8e9bd6-e6c2-466f-a7b3-7fcc05c28fbf","region":"REGION METROPOLITANA DE SANTIAGO","nombre":"TCIA. BATUCO","tipo_unidad":"TENENCIA","latitude":-33.238708,"longitude":-70.807077,"ano":"2014"},{"id":"621e8c99-d08f-4d5d-833e-618a67a92255","region":"REGION METROPOLITANA DE SANTIAGO","nombre":"TCIA. CARRET. CURACAVI","tipo_unidad":"TENENCIA CARRETERAS","latitude":-33.405672249,"longitude":-71.188890721,"ano":"2014"},{"id":"073b2b92-2772-40b8-aef9-411fd57a4110","region":"REGION METROPOLITANA DE SANTIAGO","nombre":"TCIA. CARRET. LAMPA","tipo_unidad":"TENENCIA CARRETERAS","latitude":-33.232305554,"longitude":-70.76078891,"ano":"2014"},{"id":"bdb2a20b-2e27-47b4-8298-6b5845024f7d","region":"REGION METROPOLITANA DE SANTIAGO","nombre":"TCIA. CARRET. MELIPILLA","tipo_unidad":"TENENCIA CARRETERAS","latitude":-33.697542475,"longitude":-71.03294528,"ano":"2014"},{"id":"76d8a62e-509e-41f4-a225-cf2a655d55b5","region":"REGION METROPOLITANA DE SANTIAGO","nombre":"SCOM. PADRE HURTADO (M.C.)","tipo_unidad":"SUBCOMISARIA","latitude":-33.569,"longitude":-70.81537,"ano":"2014"},{"id":"2b2741a7-ac04-4d1e-89db-4cc0876802c1","region":"REGION METROPOLITANA DE SANTIAGO","nombre":"TCIA. CARRET. PAINE","tipo_unidad":"TENENCIA CARRETERAS","latitude":-33.89377388,"longitude":-70.735334213,"ano":"2014"},{"id":"3d3eae27-96fe-4c18-8308-108d25e31991","region":"REGION METROPOLITANA DE SANTIAGO","nombre":"SCOM.. EL MONTE","tipo_unidad":"SUBCOMISARIA","latitude":-33.678924,"longitude":-70.979044,"ano":"2014"},{"id":"a0acdae9-72cc-444a-95ef-de5e98e2aa53","region":"REGION METROPOLITANA DE SANTIAGO","nombre":"TCIA. EL SALTO","tipo_unidad":"TENENCIA","latitude":-33.39433,"longitude":-70.6256,"ano":"2014"},{"id":"946f9e52-f1ca-4635-9446-21d9b826e5ec","region":"REGION METROPOLITANA DE SANTIAGO","nombre":"TCIA. ISLA DE MAIPO","tipo_unidad":"TENENCIA","latitude":-33.74985,"longitude":-70.90273,"ano":"2014"},{"id":"9b0e4e8f-4d56-490c-97d6-a72221b10917","region":"REGION METROPOLITANA DE SANTIAGO","nombre":"TCIA. JOSE SANTOS OSSA","tipo_unidad":"TENENCIA","latitude":-33.39411,"longitude":-70.63696,"ano":"2014"},{"id":"6aee8dcd-f8d4-40e9-97c0-cc29d15a8133","region":"REGION METROPOLITANA DE SANTIAGO","nombre":"TCIA. JUAN ANTONIO RIOS","tipo_unidad":"TENENCIA","latitude":-33.42147,"longitude":-70.67091,"ano":"2014"},{"id":"4a2f1915-b209-4a0b-8743-352e2ec2bc0c","region":"REGION METROPOLITANA DE SANTIAGO","nombre":"TCIA. LA VICTORIA","tipo_unidad":"TENENCIA","latitude":-33.486792,"longitude":-70.679658,"ano":"2014"},{"id":"2ef17e31-1c97-4a33-8662-ec0041909165","region":"REGION METROPOLITANA DE SANTIAGO","nombre":"59A. COMISARIA LAMPA","tipo_unidad":"COMISARIA","latitude":-33.285618982,"longitude":-70.8728984653,"ano":"2014"},{"id":"435f45a7-234d-417f-824c-9b05825c76a5","region":"REGION METROPOLITANA DE SANTIAGO","nombre":"TCIA. LO SIERRA","tipo_unidad":"TENENCIA","latitude":-33.532204,"longitude":-70.703694,"ano":"2014"},{"id":"0847c005-3408-4931-9eca-6b9f980a9d1f","region":"REGION METROPOLITANA DE SANTIAGO","nombre":"SCOM. LO VELASQUEZ","tipo_unidad":"SUBCOMISARIA","latitude":-33.39829,"longitude":-70.74882,"ano":"2014"},{"id":"8ce5666d-39ef-464e-99c5-9e2ecb4efcfa","region":"REGION METROPOLITANA DE SANTIAGO","nombre":"SCOM. LOS JARDINES","tipo_unidad":"SUBCOMISARIA","latitude":-33.53467,"longitude":-70.57404,"ano":"2014"},{"id":"22ae0c2c-c0f8-4b9c-a9fd-c632e1f757e4","region":"REGION METROPOLITANA DE SANTIAGO","nombre":"TCIA. MALLOCO","tipo_unidad":"TENENCIA","latitude":-33.60206,"longitude":-70.85041,"ano":"2014"},{"id":"bda265e6-d72b-4a1f-b3c4-19a871514631","region":"REGION METROPOLITANA DE SANTIAGO","nombre":"TCIA. MARIA PINTO","tipo_unidad":"TENENCIA","latitude":-33.5156718494,"longitude":-71.1184209492,"ano":"2014"},{"id":"01de4957-c20d-444a-bf2b-c4fd5dcc2f20","region":"REGION METROPOLITANA DE SANTIAGO","nombre":"60A. COM. METRO SANTIAGO","tipo_unidad":"COMISARIA","latitude":-33.437411,"longitude":-70.634174,"ano":"2014"},{"id":"85ac5990-48f2-402a-84e0-f969db16b87e","region":"REGION METROPOLITANA DE SANTIAGO","nombre":"TCIA. NVA. ESPANA","tipo_unidad":"TENENCIA","latitude":-33.52834,"longitude":-70.67254,"ano":"2014"},{"id":"9c5999fd-71a0-4543-8a87-d0d0a5b5c52f","region":"REGION METROPOLITANA DE SANTIAGO","nombre":"TCIA. P, A.C","tipo_unidad":"TENENCIA","latitude":-33.503978,"longitude":-70.676001,"ano":"2014"},{"id":"329bb61b-60c6-4658-ab02-f1e02904e61f","region":"REGION METROPOLITANA DE SANTIAGO","nombre":"65A. COM. PIRQUE","tipo_unidad":"COMISARIA","latitude":-33.63436,"longitude":-70.57312,"ano":"2014"},{"id":"057abd38-2e4c-4d8a-b845-224188a10567","region":"REGION METROPOLITANA DE SANTIAGO","nombre":"SCOM. RECOLETA SUR","tipo_unidad":"SUBCOMISARIA","latitude":-33.42732,"longitude":-70.650932,"ano":"2014"},{"id":"1ae97ace-1387-4c1d-9936-e89b3e73db98","region":"REGION METROPOLITANA DE SANTIAGO","nombre":"TCIA. SAN LUIS","tipo_unidad":"TENENCIA","latitude":-33.504359,"longitude":-70.577419,"ano":"2014"},{"id":"89fb410c-393c-4f09-bb61-ad513bf28a0f","region":"REGION METROPOLITANA DE SANTIAGO","nombre":"TCIA. SAN PEDRO","tipo_unidad":"TENENCIA","latitude":-33.8954400642,"longitude":-71.4543185752,"ano":"2014"},{"id":"53a6aefb-4bb2-4a69-bbe7-b198e7028281","region":"REGION METROPOLITANA DE SANTIAGO","nombre":"TCIA. SANTA ADRIANA","tipo_unidad":"TENENCIA","latitude":-33.508111,"longitude":-70.67906,"ano":"2014"},{"id":"f5d133f9-8648-41db-83de-9cc69a6aba70","region":"REGION METROPOLITANA DE SANTIAGO","nombre":"TCIA. SANTA ROSA CHENA","tipo_unidad":"TENENCIA","latitude":-33.56417,"longitude":-70.795659,"ano":"2014"},{"id":"ba3bd084-8a45-4b99-90fe-1536c7e22a31","region":"REGION METROPOLITANA DE SANTIAGO","nombre":"TCIA. TILTIL","tipo_unidad":"TENENCIA","latitude":-33.08709,"longitude":-70.921799,"ano":"2014"},{"id":"777f791d-5569-4140-8a1f-0849326d4e30","region":"REGION METROPOLITANA DE SANTIAGO","nombre":"TCIA. TTE. MAURICIO RIVERA L.","tipo_unidad":"TENENCIA","latitude":-33.55631,"longitude":-70.61659,"ano":"2014"},{"id":"ebe908ca-6cb7-4c82-8897-76affb2f3a6e","region":"REGION METROPOLITANA DE SANTIAGO","nombre":"TCIA. VILLA ALHUE","tipo_unidad":"TENENCIA","latitude":-34.030837198,"longitude":-71.100528551,"ano":"2014"},{"id":"1dac363e-acbf-47c6-80dc-ee74d303034e","region":"REGION METROPOLITANA DE SANTIAGO","nombre":"11A. COM. LO ESPEJO","tipo_unidad":"COMISARIA","latitude":-33.507279,"longitude":-70.696376,"ano":"2014"},{"id":"66544499-87e5-48cb-96fe-5ca774e69a00","region":"REGION METROPOLITANA DE SANTIAGO","nombre":"47A. COM. LOS DOMINICOS","tipo_unidad":"COMISARIA","latitude":-33.403971,"longitude":-70.537785,"ano":"2014"},{"id":"68955a6e-2625-4f36-8d71-ba1a7ecd0758","region":"REGION METROPOLITANA DE SANTIAGO","nombre":"SCOM. CALERA DE TANGO","tipo_unidad":"SUBCOMISARIA","latitude":-33.630996,"longitude":-70.75827,"ano":"2014"},{"id":"f61fff04-bc7c-4915-8c97-fbd32b82c8ac","region":"REGION METROPOLITANA DE SANTIAGO","nombre":"TCIA. CARRET. COLINA","tipo_unidad":"TENENCIA CARRETERAS","latitude":-33.2192175774,"longitude":-70.6763451489,"ano":"2014"},{"id":"c0d41786-b0e3-4f76-8f8f-e589d772eb5c","region":"REGION MAGALLANES Y DE LA ANTARTICA CHILENA","nombre":"1RA. COM. PUNTA ARENAS U","tipo_unidad":"COMISARIA","latitude":-53.1644273052,"longitude":-70.9304364467,"ano":"2014"},{"id":"000f03ac-4169-4b06-9d20-456f5b9d9968","region":"REGION MAGALLANES Y DE LA ANTARTICA CHILENA","nombre":"2DA. COM. PUERTO NATALES","tipo_unidad":"COMISARIA","latitude":-51.7274700989,"longitude":-72.5064394899,"ano":"2014"},{"id":"b1dfd2d3-1562-48fd-806f-532a4d952a12","region":"REGION MAGALLANES Y DE LA ANTARTICA CHILENA","nombre":"3RA. COM. PORVENIR","tipo_unidad":"COMISARIA","latitude":-53.2964582076,"longitude":-70.3767007066,"ano":"2014"},{"id":"a537a075-3418-4213-99f6-a157f7c3388c","region":"REGION MAGALLANES Y DE LA ANTARTICA CHILENA","nombre":"RETEN AGUA FRESCA","tipo_unidad":"RETEN","latitude":-53.404403,"longitude":-70.990767,"ano":"2014"},{"id":"605ed7f1-8912-48f6-bff3-8e18651634fc","region":"REGION MAGALLANES Y DE LA ANTARTICA CHILENA","nombre":"RETEN CANADON GRANDE (F)","tipo_unidad":"RETEN","latitude":-52.191719509,"longitude":-69.210774826,"ano":"2014"},{"id":"73c19ac0-5c39-4cae-967c-48d72537c299","region":"REGION MAGALLANES Y DE LA ANTARTICA CHILENA","nombre":"RETEN CERRO GUIDO (F)","tipo_unidad":"RETEN","latitude":-50.9443072814,"longitude":-72.4603478505,"ano":"2014"},{"id":"d23bf0ac-b25b-4a78-a29a-da11e99f57c7","region":"REGION MAGALLANES Y DE LA ANTARTICA CHILENA","nombre":"RETEN DOROTEA (F)","tipo_unidad":"RETEN","latitude":-51.6044251954,"longitude":-72.3339527324,"ano":"2014"},{"id":"96b5132c-c384-4bfa-b141-4e1f70921bca","region":"REGION MAGALLANES Y DE LA ANTARTICA CHILENA","nombre":"RETEN MORRO CHICO (F)","tipo_unidad":"RETEN","latitude":-52.0553333052,"longitude":-71.4286022513,"ano":"2014"},{"id":"3f2fbd91-5556-46e8-a001-de173308bfe0","region":"REGION MAGALLANES Y DE LA ANTARTICA CHILENA","nombre":"RETEN PAMPA GUANACO (F)","tipo_unidad":"RETEN","latitude":-54.049263841,"longitude":-68.802055439,"ano":"2014"},{"id":"2e7f0263-d9bc-4f29-a374-7b711296663f","region":"REGION MAGALLANES Y DE LA ANTARTICA CHILENA","nombre":"RETEN PUERTO EDEN","tipo_unidad":"RETEN","latitude":-49.1287173457,"longitude":-74.4288650552,"ano":"2014"},{"id":"99197f91-8d0d-49aa-a1d9-100bbc374730","region":"REGION MAGALLANES Y DE LA ANTARTICA CHILENA","nombre":"RETEN PUERTO TORO (F)","tipo_unidad":"RETEN","latitude":-55.0832828262,"longitude":-67.0745797015,"ano":"2014"},{"id":"98446fd0-3a34-4f87-8931-1af688b323f5","region":"REGION MAGALLANES Y DE LA ANTARTICA CHILENA","nombre":"SCOM. RIO SECO","tipo_unidad":"SUBCOMISARIA","latitude":-53.05536928,"longitude":-70.861107078,"ano":"2014"},{"id":"f72c9717-249f-486a-adb0-b23ec875a346","region":"REGION MAGALLANES Y DE LA ANTARTICA CHILENA","nombre":"RETEN TENIENTE HERNAN MERINO CORREA (F)","tipo_unidad":"RETEN","latitude":-52.025626823,"longitude":-70.734905278,"ano":"2014"},{"id":"145fc040-453c-4d84-912f-0a8e0d515706","region":"REGION MAGALLANES Y DE LA ANTARTICA CHILENA","nombre":"RETEN TORRES DEL PAINE (F)","tipo_unidad":"RETEN","latitude":-51.2592696162,"longitude":-72.3461064326,"ano":"2014"},{"id":"b52b6ec1-e10a-47dd-ac8b-164bffb96e3e","region":"REGION MAGALLANES Y DE LA ANTARTICA CHILENA","nombre":"RETEN VILLA TEHUELCHES","tipo_unidad":"RETEN","latitude":-52.4278214695,"longitude":-71.4157500685,"ano":"2014"},{"id":"25f93c3a-d55e-448e-b19b-4507b459e8f7","region":"REGION MAGALLANES Y DE LA ANTARTICA CHILENA","nombre":"SCOM. CASAS VIEJAS (F)","tipo_unidad":"SUBCOMISARIA","latitude":-51.6995085486,"longitude":-72.3285617495,"ano":"2014"},{"id":"78a24f4d-e33b-432c-9678-4c03f8fe2aa6","region":"REGION MAGALLANES Y DE LA ANTARTICA CHILENA","nombre":"4TA. COM. PUERTO WILLIAMS (F)","tipo_unidad":"COMISARIA","latitude":-54.9340278119,"longitude":-67.5986904475,"ano":"2014"},{"id":"688338c2-15ee-4f26-a85e-fdfa5f62ad72","region":"REGION MAGALLANES Y DE LA ANTARTICA CHILENA","nombre":"TCIA. CERRO SOMBRERO (F)","tipo_unidad":"TENENCIA","latitude":-52.7724801602,"longitude":-69.2875055004,"ano":"2014"},{"id":"7a59a112-c5ba-4a8d-9342-0501ff25c81a","region":"REGION MAGALLANES Y DE LA ANTARTICA CHILENA","nombre":"PUESTO DE CONTROL CARRETERO KON AIKEN","tipo_unidad":"PUESTO DE CONTROL","latitude":-52.916356,"longitude":-70.903148,"ano":"2014"},{"id":"15759d75-74f1-4136-a01f-f6f9f7ab0e11","region":"REGION MAGALLANES Y DE LA ANTARTICA CHILENA","nombre":"TCIA. MONTE AYMOND (F)","tipo_unidad":"TENENCIA","latitude":-52.1457220105,"longitude":-69.5170851487,"ano":"2014"},{"id":"60fc2e05-2b35-4e9e-b1c9-ddd9161b8e5c","region":"REGION MAGALLANES Y DE LA ANTARTICA CHILENA","nombre":"TCIA. SAN SEBASTIAN (F)","tipo_unidad":"TENENCIA","latitude":-53.3211699594,"longitude":-68.6608942892,"ano":"2014"},{"id":"74d498fa-5adf-4d7d-b437-bf5f76f95755","region":"REGION MAGALLANES Y DE LA ANTARTICA CHILENA","nombre":"TCIA. YENDEGAIA (F)","tipo_unidad":"TENENCIA","latitude":-54.8665420698,"longitude":-68.69049756,"ano":"2014"},{"id":"ceecfdbc-8c67-414a-9501-580b1548188c","region":"REGION AISEN DEL GENERAL CARLOS IBANEZ DEL CAMPO","nombre":"1RA. COM. COYHAIQUE","tipo_unidad":"COMISARIA","latitude":-45.5698539149,"longitude":-72.0638653572,"ano":"2014"},{"id":"734dff55-220e-4dc0-b229-1df789cc84f7","region":"REGION AISEN DEL GENERAL CARLOS IBANEZ DEL CAMPO","nombre":"2DA. COM. PUERTO AYSEN","tipo_unidad":"COMISARIA","latitude":-45.4060533348,"longitude":-72.6972013846,"ano":"2014"},{"id":"b7b7f67c-63b8-4879-a68b-2ff645d77912","region":"REGION AISEN DEL GENERAL CARLOS IBANEZ DEL CAMPO","nombre":"3RA. COM. CHILE CHICO (F)","tipo_unidad":"COMISARIA","latitude":-46.5399518494,"longitude":-71.7243004498,"ano":"2014"},{"id":"cb823cac-fcd2-4b33-884e-8195d9a77794","region":"REGION AISEN DEL GENERAL CARLOS IBANEZ DEL CAMPO","nombre":"4TA. COM. COCHRANE (F)","tipo_unidad":"COMISARIA","latitude":-47.253341948,"longitude":-72.571997276,"ano":"2014"},{"id":"13599173-2a25-4818-a618-6389371ba7bb","region":"REGION AISEN DEL GENERAL CARLOS IBANEZ DEL CAMPO","nombre":"RETEN CALETA TORTEL","tipo_unidad":"RETEN","latitude":-47.8019411136,"longitude":-73.5379055896,"ano":"2014"},{"id":"dd9dfd21-33a8-4567-83f4-88c00ccf5a75","region":"REGION AISEN DEL GENERAL CARLOS IBANEZ DEL CAMPO","nombre":"SCOM. EL BLANCO (M.C.)","tipo_unidad":"SUBCOMISARIA","latitude":-45.8086597443,"longitude":-71.9182889734,"ano":"2014"},{"id":"4bb5a04a-8858-40d1-b11c-ea30d9f4a23e","region":"REGION AISEN DEL GENERAL CARLOS IBANEZ DEL CAMPO","nombre":"RETEN ENTRADA BAKER (F)","tipo_unidad":"RETEN","latitude":-47.183777129,"longitude":-71.973790613,"ano":"2014"},{"id":"109dbb19-5ea3-4098-8270-1e24d9d6868a","region":"REGION AISEN DEL GENERAL CARLOS IBANEZ DEL CAMPO","nombre":"RETEN LAGO CASTOR (F)","tipo_unidad":"RETEN","latitude":-45.5812750252,"longitude":-71.7441225484,"ano":"2014"},{"id":"9b7f4434-3c3d-427d-ada6-30b79826c555","region":"REGION AISEN DEL GENERAL CARLOS IBANEZ DEL CAMPO","nombre":"RETEN LAGO VERDE (F)","tipo_unidad":"RETEN","latitude":-44.2397199996,"longitude":-71.8499999985,"ano":"2014"},{"id":"fd94dcef-9c87-44f2-a402-c229375e21c3","region":"REGION AISEN DEL GENERAL CARLOS IBANEZ DEL CAMPO","nombre":"RETEN MELINKA","tipo_unidad":"RETEN","latitude":-43.896667663,"longitude":-73.74803617,"ano":"2014"},{"id":"83439a46-7b3b-4b07-93a1-91418ea11855","region":"REGION AISEN DEL GENERAL CARLOS IBANEZ DEL CAMPO","nombre":"RETEN PUERTO AGUIRRE","tipo_unidad":"RETEN","latitude":-45.1643316733,"longitude":-73.5231114731,"ano":"2014"},{"id":"d292dc83-290c-4c88-b1e8-6fe2b9851ea9","region":"REGION AISEN DEL GENERAL CARLOS IBANEZ DEL CAMPO","nombre":"RETEN PUERTO CHACABUCO (M.A.)","tipo_unidad":"RETEN","latitude":-45.4615475238,"longitude":-72.8192369995,"ano":"2014"},{"id":"f0656e7e-903a-4bd5-bd0f-994593d1b68f","region":"REGION AISEN DEL GENERAL CARLOS IBANEZ DEL CAMPO","nombre":"RETEN PUERTO GUADAL","tipo_unidad":"RETEN","latitude":-46.8445737338,"longitude":-72.7014423631,"ano":"2014"},{"id":"66caa38f-64b4-4b06-a016-da29963c776f","region":"REGION AISEN DEL GENERAL CARLOS IBANEZ DEL CAMPO","nombre":"RETEN PUESTO VIEJO (F)","tipo_unidad":"RETEN","latitude":-45.2689900725,"longitude":-71.7136225069,"ano":"2014"},{"id":"faef9d2e-86f1-42ff-8a01-f6e30764c301","region":"REGION AISEN DEL GENERAL CARLOS IBANEZ DEL CAMPO","nombre":"RETEN PUYUHUAPI","tipo_unidad":"RETEN","latitude":-44.324892,"longitude":-72.558077,"ano":"2014"},{"id":"d62f4318-61a0-4938-9c5e-5aa969bad48d","region":"REGION AISEN DEL GENERAL CARLOS IBANEZ DEL CAMPO","nombre":"RETEN RAUL MARIN BALMACEDA","tipo_unidad":"RETEN","latitude":-43.7763622691,"longitude":-72.9516615559,"ano":"2014"},{"id":"eafc1681-a5cc-4f2b-9113-ff0cd5baffdb","region":"REGION AISEN DEL GENERAL CARLOS IBANEZ DEL CAMPO","nombre":"RETEN RIO CISNES (F)","tipo_unidad":"RETEN","latitude":-44.497637472,"longitude":-71.307179597,"ano":"2014"},{"id":"a47c5978-6cb3-4e15-a240-198168e3d161","region":"REGION AISEN DEL GENERAL CARLOS IBANEZ DEL CAMPO","nombre":"RETEN RIO TRANQUILO","tipo_unidad":"RETEN","latitude":-46.626767784,"longitude":-72.6755609264,"ano":"2014"},{"id":"8b7bcb06-f26d-4414-a006-5393ca8a9f67","region":"REGION AISEN DEL GENERAL CARLOS IBANEZ DEL CAMPO","nombre":"RETEN VILLA MANIHUALES","tipo_unidad":"RETEN","latitude":-45.17759956,"longitude":-72.149949023,"ano":"2014"},{"id":"0fbb05fc-5975-4d7b-bf84-a26382a267bd","region":"REGION AISEN DEL GENERAL CARLOS IBANEZ DEL CAMPO","nombre":"RETEN VILLA ORTEGA","tipo_unidad":"RETEN","latitude":-45.3727955254,"longitude":-71.9962006011,"ano":"2014"},{"id":"9da688f2-ae52-4a9c-a6e3-a48ad3954760","region":"REGION AISEN DEL GENERAL CARLOS IBANEZ DEL CAMPO","nombre":"SCOM. VILLA OHIGGINS (F)","tipo_unidad":"SUBCOMISARIA","latitude":-48.4707373313,"longitude":-72.5603710044,"ano":"2014"},{"id":"6e2d7ade-0330-4e89-acc6-b822036156e2","region":"REGION AISEN DEL GENERAL CARLOS IBANEZ DEL CAMPO","nombre":"TCIA. BALMACEDA (F)","tipo_unidad":"TENENCIA","latitude":-45.9103373427,"longitude":-71.6923796231,"ano":"2014"},{"id":"b072dd2e-c936-437e-85f8-7a23f869b339","region":"REGION AISEN DEL GENERAL CARLOS IBANEZ DEL CAMPO","nombre":"TCIA. COYHAIQUE ALTO (F)","tipo_unidad":"TENENCIA","latitude":-45.4804883788,"longitude":-71.6041575773,"ano":"2014"},{"id":"86c9fe23-8415-4d5a-80da-340aa1df32b7","region":"REGION AISEN DEL GENERAL CARLOS IBANEZ DEL CAMPO","nombre":"TCIA. LA JUNTA","tipo_unidad":"TENENCIA","latitude":-43.972269187,"longitude":-72.402005844,"ano":"2014"},{"id":"d07db39f-6ecb-4e57-8d2c-a3a99172d0ec","region":"REGION AISEN DEL GENERAL CARLOS IBANEZ DEL CAMPO","nombre":"SCOM. PUERTO CISNES","tipo_unidad":"SUBCOMISARIA","latitude":-44.7272811096,"longitude":-72.6829685857,"ano":"2014"},{"id":"68c42910-69e2-41ac-bfc8-d0b43cbeecd6","region":"REGION AISEN DEL GENERAL CARLOS IBANEZ DEL CAMPO","nombre":"TCIA. PUERTO INGENIERO IBANEZ (F)","tipo_unidad":"TENENCIA","latitude":-46.2942928781,"longitude":-71.9329894711,"ano":"2014"},{"id":"ab3d0297-ef9a-49ec-817c-ebd489759bde","region":"REGION AISEN DEL GENERAL CARLOS IBANEZ DEL CAMPO","nombre":"TCIA. RIO MAYER (F)","tipo_unidad":"TENENCIA","latitude":-48.20982097,"longitude":-72.323156101,"ano":"2014"},{"id":"248d3ba2-25a5-43c6-bc23-ff7bd91403f7","region":"REGION AISEN DEL GENERAL CARLOS IBANEZ DEL CAMPO","nombre":"TCIA. TTE. HERNAN MERINO CORREA (F)","tipo_unidad":"TENENCIA","latitude":-48.8693750328,"longitude":-72.7422333217,"ano":"2014"},{"id":"e2f87653-532f-4e4a-8bca-2c659719faab","region":"REGION AISEN DEL GENERAL CARLOS IBANEZ DEL CAMPO","nombre":"RETEN VILLA LA TAPERA (F)","tipo_unidad":"RETEN","latitude":-44.6467850423,"longitude":-71.6712507795,"ano":"2014"},{"id":"18367b62-a250-42d9-b8dd-6ba159870fd5","region":"REGION LOS LAGOS","nombre":"4TA. COM. CALBUCO","tipo_unidad":"COMISARIA","latitude":-41.7720417766,"longitude":-73.1276596645,"ano":"2014"},{"id":"98f477af-9054-478f-b203-5aacf7e9105b","region":"REGION LOS LAGOS","nombre":"1RA. COM. ANCUD","tipo_unidad":"COMISARIA","latitude":-41.8654097433,"longitude":-73.8268949782,"ano":"2014"},{"id":"c3b66eec-f168-4b97-becc-729c232b7824","region":"REGION LOS LAGOS","nombre":"1RA. COM. OSORNO U","tipo_unidad":"COMISARIA","latitude":-40.5772210187,"longitude":-73.1261652531,"ano":"2014"},{"id":"f9d80041-ce0a-42c7-b505-17422c5302e3","region":"REGION LOS LAGOS","nombre":"1RA. COM. PUERTO VARAS","tipo_unidad":"COMISARIA","latitude":-41.3163490273,"longitude":-72.9843184428,"ano":"2014"},{"id":"a7349aba-9e06-4179-98b8-55a3b559bffe","region":"REGION LOS LAGOS","nombre":"2DA. COM. CASTRO","tipo_unidad":"COMISARIA","latitude":-42.4827976117,"longitude":-73.7658000664,"ano":"2014"},{"id":"897a03d5-e861-4290-b801-1bcd23a23a13","region":"REGION LOS LAGOS","nombre":"2DA. COM. PTO. MONTT","tipo_unidad":"COMISARIA","latitude":-41.4673667505,"longitude":-72.9432491496,"ano":"2014"},{"id":"d9b52abe-0e42-4e35-85b0-08e70f54fa5e","region":"REGION LOS LAGOS","nombre":"2DA. COM. RIO NEGRO","tipo_unidad":"COMISARIA","latitude":-40.7992513237,"longitude":-73.2180316135,"ano":"2014"},{"id":"6aab90ea-9a1f-4490-85d0-d7551f24ee55","region":"REGION LOS LAGOS","nombre":"3RA. COM. FUTALEUFU (F)","tipo_unidad":"COMISARIA","latitude":-43.1863737456,"longitude":-71.8672612672,"ano":"2014"},{"id":"f5dc45a1-74e8-4715-9c0b-6e67987f781a","region":"REGION LOS LAGOS","nombre":"3RA. COM. MAULLIN","tipo_unidad":"COMISARIA","latitude":-41.6211412665,"longitude":-73.5945879371,"ano":"2014"},{"id":"f111eb5f-549c-4512-9b4e-2e63c113bcd4","region":"REGION LOS LAGOS","nombre":"SCOM. RAHUE","tipo_unidad":"SUBCOMISARIA","latitude":-40.5747767519,"longitude":-73.1502353268,"ano":"2014"},{"id":"03974728-e0cc-4970-8ab9-1f9295aee596","region":"REGION LOS LAGOS","nombre":"4TA. COM. CHAITEN (F)","tipo_unidad":"COMISARIA","latitude":-42.9160644736,"longitude":-72.7094278151,"ano":"2014"},{"id":"8d712a37-9906-4afa-8a93-eaca4227c3de","region":"REGION LOS LAGOS","nombre":"5TA. COM. PALENA (F)","tipo_unidad":"COMISARIA","latitude":-43.6183772111,"longitude":-71.8035078384,"ano":"2014"},{"id":"f9eeb265-e178-43ca-b8bb-1a5366273bb4","region":"REGION LOS LAGOS","nombre":"5TA. COM. PTO. MONTT S.U.","tipo_unidad":"COMISARIA","latitude":-41.4603278784,"longitude":-72.952300921,"ano":"2014"},{"id":"ad18c69f-e7e5-47ce-8f89-da93304ff5cc","region":"REGION LOS LAGOS","nombre":"RETEN AYACARA (F)","tipo_unidad":"RETEN","latitude":-42.3184512851,"longitude":-72.7879396427,"ano":"2014"},{"id":"63583dc4-6110-469d-b84c-d856523e61e9","region":"REGION LOS LAGOS","nombre":"RETEN BAHIA MANSA","tipo_unidad":"RETEN","latitude":-40.5807195063,"longitude":-73.7334001015,"ano":"2014"},{"id":"31811c0b-ec95-454a-9aab-0369305a28e7","region":"REGION LOS LAGOS","nombre":"RETEN CANCURA","tipo_unidad":"RETEN","latitude":-40.7594599354,"longitude":-72.9673075997,"ano":"2014"},{"id":"ce287cf3-351d-41bc-8232-90c3b439840a","region":"REGION LOS LAGOS","nombre":"RETEN CANUTILLAR","tipo_unidad":"RETEN","latitude":-41.4960671634,"longitude":-72.3350029017,"ano":"2014"},{"id":"7e229530-8537-496d-8725-a5859740862c","region":"REGION LOS LAGOS","nombre":"RETEN CASMA","tipo_unidad":"RETEN","latitude":-41.0102799134,"longitude":-73.1240405037,"ano":"2014"},{"id":"8c2f4a3d-2a58-4756-a7be-30f59d7cfb48","region":"REGION LOS LAGOS","nombre":"RETEN COCHAMO","tipo_unidad":"RETEN","latitude":-41.4931871605,"longitude":-72.3038532792,"ano":"2014"},{"id":"0ec83002-9ce3-45ad-9bb3-0640b4bc28da","region":"REGION LOS LAGOS","nombre":"RETEN CONTAO","tipo_unidad":"RETEN","latitude":-41.8039925584,"longitude":-72.7195193127,"ano":"2014"},{"id":"50cf41b1-38a6-45f3-8cca-3938d52fdc63","region":"REGION LOS LAGOS","nombre":"RETEN PIEDRA AZUL","tipo_unidad":"RETEN","latitude":-41.4926488414,"longitude":-72.8164821982,"ano":"2014"},{"id":"5720a46d-2fbd-462f-b184-2e463740c6eb","region":"REGION LOS LAGOS","nombre":"RETEN CORTE ALTO","tipo_unidad":"RETEN","latitude":-40.9514518263,"longitude":-73.1616591285,"ano":"2014"},{"id":"cb3f15ba-e9c4-4216-8b9e-0eff0c57424a","region":"REGION LOS LAGOS","nombre":"RETEN CRUCERO","tipo_unidad":"RETEN","latitude":-40.925175017,"longitude":-73.349362073,"ano":"2014"},{"id":"87b8361d-1512-41d2-a009-c74fc8e48d29","region":"REGION LOS LAGOS","nombre":"RETEN CURACO DE VELEZ","tipo_unidad":"RETEN","latitude":-42.4388611711,"longitude":-73.5953187206,"ano":"2014"},{"id":"655bbb64-505d-4de7-aaa8-c0d41a5da3c0","region":"REGION LOS LAGOS","nombre":"RETEN ELEUTERIO RAMIREZ","tipo_unidad":"RETEN","latitude":-40.5918056204,"longitude":-72.9501610287,"ano":"2014"},{"id":"a982e4ce-30f6-4542-bba5-785ebdf094b7","region":"REGION LOS LAGOS","nombre":"RETEN ISLA GUAR","tipo_unidad":"RETEN","latitude":-41.6680471494,"longitude":-72.9800010617,"ano":"2014"},{"id":"578d4410-e431-4c78-888d-e041bb795f6f","region":"REGION LOS LAGOS","nombre":"RETEN ISLA PULUQUI","tipo_unidad":"RETEN","latitude":-41.7974280034,"longitude":-73.0371650247,"ano":"2014"},{"id":"7dffc26b-2582-472a-8ba2-4ad9cf3c6581","region":"REGION LOS LAGOS","nombre":"RETEN ISLA QUENAC","tipo_unidad":"RETEN","latitude":-42.4580802794,"longitude":-73.3315053737,"ano":"2014"},{"id":"74a746c4-017a-49c4-8b64-0970234a64ab","region":"REGION LOS LAGOS","nombre":"RETEN LA PASADA","tipo_unidad":"RETEN","latitude":-41.6034075214,"longitude":-73.5989928167,"ano":"2014"},{"id":"0c6c7d75-7fa5-49e7-b155-ce0b7e7d44b3","region":"REGION LOS LAGOS","nombre":"RETEN LAS CASCADAS","tipo_unidad":"RETEN","latitude":-41.0831241924,"longitude":-72.6367685747,"ano":"2014"},{"id":"82747c2f-b857-4ce1-bba8-8cbb6c98ac8b","region":"REGION LOS LAGOS","nombre":"RETEN LLANADA GRANDE (F)","tipo_unidad":"RETEN","latitude":-41.8697664724,"longitude":-71.9429770577,"ano":"2014"},{"id":"7d552579-660c-4a71-b1ae-11774c165ce8","region":"REGION LOS LAGOS","nombre":"RETEN LONCOTORO","tipo_unidad":"RETEN","latitude":-41.2945669214,"longitude":-73.2132861847,"ano":"2014"},{"id":"9823da12-0a1f-46c8-8088-91a308fd8942","region":"REGION LOS LAGOS","nombre":"RETEN LOS PELLINES","tipo_unidad":"RETEN","latitude":-41.190419895,"longitude":-73.069736225,"ano":"2014"},{"id":"e8d5a71b-18f4-4ddf-ade8-6567289b5fb2","region":"REGION LOS LAGOS","nombre":"RETEN MECHUQUE","tipo_unidad":"RETEN","latitude":-42.3143360294,"longitude":-73.2692150507,"ano":"2014"},{"id":"98bdd1c2-b849-43eb-b760-faa482572caa","region":"REGION LOS LAGOS","nombre":"RETEN NUEVA BRAUNAU","tipo_unidad":"RETEN","latitude":-41.3258082891,"longitude":-73.0792678929,"ano":"2014"},{"id":"188980fc-4605-4877-897b-7ee6b76cc9f4","region":"REGION LOS LAGOS","nombre":"RETEN OLMOPULLI","tipo_unidad":"RETEN","latitude":-41.5938910574,"longitude":-73.4059958837,"ano":"2014"},{"id":"d2d5a0fd-b37a-414c-a2ed-cc21894f8b40","region":"REGION LOS LAGOS","nombre":"RETEN OVEJERIA","tipo_unidad":"RETEN","latitude":-40.5908476023,"longitude":-73.1451890208,"ano":"2014"},{"id":"ce23c2ef-3401-4303-814c-f775527e3ac6","region":"REGION LOS LAGOS","nombre":"RETEN PAMPA ALEGRE","tipo_unidad":"RETEN","latitude":-40.5646234473,"longitude":-73.152554443,"ano":"2014"},{"id":"eee64475-158c-425b-9d56-1b3c955c2751","region":"REGION LOS LAGOS","nombre":"TCIA. PANITAO (M.C.)","tipo_unidad":"TENENCIA","latitude":-41.5222292121,"longitude":-73.0889758192,"ano":"2014"},{"id":"2ed2aabd-eb3e-4b83-8265-2158f075c573","region":"REGION LOS LAGOS","nombre":"RETEN PARAGUAY CHICO","tipo_unidad":"RETEN","latitude":-41.4118999654,"longitude":-73.2863945477,"ano":"2014"},{"id":"ad1d779d-475d-4afe-ae67-d1f13bfb45f1","region":"REGION LOS LAGOS","nombre":"RETEN PARGA","tipo_unidad":"RETEN","latitude":-41.2200941629,"longitude":-73.4902095642,"ano":"2014"},{"id":"30d74e1d-bc58-4d71-9269-3cac92313741","region":"REGION LOS LAGOS","nombre":"RETEN PARGUA","tipo_unidad":"RETEN","latitude":-41.791280516,"longitude":-73.460409701,"ano":"2014"},{"id":"2036e7dd-829d-49cd-bcf6-74ae4eb2c091","region":"REGION LOS LAGOS","nombre":"RETEN PASO BOLSON (F)","tipo_unidad":"RETEN","latitude":-42.0815686934,"longitude":-71.8067495957,"ano":"2014"},{"id":"014a5a84-3649-45ae-99e3-d5ce9ad9f5a3","region":"REGION LOS LAGOS","nombre":"RETEN PASO EL LEON (F)","tipo_unidad":"RETEN","latitude":-41.5035657664,"longitude":-71.8572075397,"ano":"2014"},{"id":"b8a153a6-56c9-48c9-ad08-6c06cbd3747f","region":"REGION LOS LAGOS","nombre":"RETEN PUQUELDON","tipo_unidad":"RETEN","latitude":-42.6003267914,"longitude":-73.6766932337,"ano":"2014"},{"id":"3eaff1c9-dd98-4b48-ba18-e01def0eb6ac","region":"REGION LOS LAGOS","nombre":"RETEN QUEILEN","tipo_unidad":"RETEN","latitude":-42.891036134,"longitude":-73.476083037,"ano":"2014"},{"id":"506d6419-6979-4b53-9b8f-7ac82d16fdcd","region":"REGION LOS LAGOS","nombre":"RETEN QUEMCHI","tipo_unidad":"RETEN","latitude":-42.1439802072,"longitude":-73.4735240243,"ano":"2014"},{"id":"540dc81a-b7ea-4ed2-9c98-604efa411b14","region":"REGION LOS LAGOS","nombre":"RETEN QUENUIR","tipo_unidad":"RETEN","latitude":-41.5646460004,"longitude":-73.6786478377,"ano":"2014"},{"id":"9dc8d0ff-7d43-4764-a342-57d4f425ce5f","region":"REGION LOS LAGOS","nombre":"RETEN QUILACAHUIN","tipo_unidad":"RETEN","latitude":-40.376504445,"longitude":-73.26580521,"ano":"2014"},{"id":"6aebf6ee-b5d7-4dfd-b5fc-6eee1db787ac","region":"REGION LOS LAGOS","nombre":"RETEN RIACHUELO","tipo_unidad":"RETEN","latitude":-40.8205974746,"longitude":-73.3391271657,"ano":"2014"},{"id":"29554909-f15e-44b1-a856-68fea94ee19e","region":"REGION LOS LAGOS","nombre":"RETEN RIO FRIO","tipo_unidad":"RETEN","latitude":-41.299974142,"longitude":-73.451341341,"ano":"2014"},{"id":"a1d9349d-a07d-4e1d-87a0-9186193b2651","region":"REGION LOS LAGOS","nombre":"RETEN RIO PESCADO","tipo_unidad":"RETEN","latitude":-41.2534100092,"longitude":-72.7970641049,"ano":"2014"},{"id":"2c2f61fe-5e4c-4653-bc85-1db53ff120ac","region":"REGION LOS LAGOS","nombre":"RETEN RIO PUELO","tipo_unidad":"RETEN","latitude":-41.6594272164,"longitude":-72.3397213327,"ano":"2014"},{"id":"a24b5592-ca99-418f-9998-602e5395b2aa","region":"REGION LOS LAGOS","nombre":"RETEN RUPANCO","tipo_unidad":"RETEN","latitude":-40.8642343914,"longitude":-72.7191818667,"ano":"2014"},{"id":"1a04dc6e-a66a-40c5-a31b-d5b1789aff6b","region":"REGION LOS LAGOS","nombre":"RETEN SAN JUAN DE LA COSTA","tipo_unidad":"RETEN","latitude":-40.4993411874,"longitude":-73.3975779647,"ano":"2014"},{"id":"0a54d009-3530-4e1e-bd25-ddac18308e88","region":"REGION LOS LAGOS","nombre":"RETEN TEGUALDA","tipo_unidad":"RETEN","latitude":-41.0395720647,"longitude":-73.4078196824,"ano":"2014"},{"id":"36d67f33-acc3-4773-906f-c5f4eb1f35b6","region":"REGION LOS LAGOS","nombre":"RETEN TRUMAO","tipo_unidad":"RETEN","latitude":-40.3612004676,"longitude":-73.1653111307,"ano":"2014"},{"id":"df279a5e-2af0-4acf-a109-11c2fc823069","region":"REGION LOS LAGOS","nombre":"RETEN VALLE CALIFORNIA (F)","tipo_unidad":"RETEN","latitude":-43.6834677109,"longitude":-71.7086172472,"ano":"2014"},{"id":"8fa9754f-03d2-48a9-b699-e90089a61c68","region":"REGION LOS LAGOS","nombre":"RETEN VODUDAHUE (F)","tipo_unidad":"RETEN","latitude":-42.4905343104,"longitude":-72.3924391167,"ano":"2014"},{"id":"947f629c-4b56-4975-8578-6ebae33fd04c","region":"REGION LOS LAGOS","nombre":"SCOM. ACHAO","tipo_unidad":"SUBCOMISARIA","latitude":-42.471691214,"longitude":-73.4930514538,"ano":"2014"},{"id":"b8045fac-9d55-4656-8fdf-01a8e6141987","region":"REGION LOS LAGOS","nombre":"SCOM. FRUTILLAR","tipo_unidad":"SUBCOMISARIA","latitude":-41.1288344239,"longitude":-73.0526776679,"ano":"2014"},{"id":"6786d9f7-ddf5-40eb-a86d-f6958c93bff0","region":"REGION LOS LAGOS","nombre":"SCOM. LLANQUIHUE","tipo_unidad":"SUBCOMISARIA","latitude":-41.2689836948,"longitude":-72.9997539906,"ano":"2014"},{"id":"8010949c-9b9f-4d27-8481-85890aeec5df","region":"REGION LOS LAGOS","nombre":"7MA. COM. MIRASOL","tipo_unidad":"COMISARIA","latitude":-41.4751451387,"longitude":-72.9839860563,"ano":"2014"},{"id":"5b06927a-e2c8-4920-9dc2-bb654d642f94","region":"REGION LOS LAGOS","nombre":"SCOM. PURRANQUE","tipo_unidad":"SUBCOMISARIA","latitude":-40.9145224647,"longitude":-73.1632059962,"ano":"2014"},{"id":"83a26dbc-f5e1-4ce7-bcdf-948016ecb744","region":"REGION LOS LAGOS","nombre":"6TA. COM. QUELLON","tipo_unidad":"COMISARIA","latitude":-43.1170820584,"longitude":-73.6215898108,"ano":"2014"},{"id":"c7743bc2-f085-4f44-b4e6-e3e6240edc21","region":"REGION LOS LAGOS","nombre":"3RA. COM. OSORNO","tipo_unidad":"COMISARIA","latitude":-40.5824164042,"longitude":-73.1664948471,"ano":"2014"},{"id":"9936ba65-2708-479c-a990-26513ae4f041","region":"REGION LOS LAGOS","nombre":"6TA. COM. ALERCE (S.U.)","tipo_unidad":"COMISARIA","latitude":-41.3980281285,"longitude":-72.9032043993,"ano":"2014"},{"id":"07905001-ab1a-428e-bc57-87157f2d0813","region":"REGION LOS LAGOS","nombre":"TCIA. CARELMAPU","tipo_unidad":"TENENCIA","latitude":-41.745883627,"longitude":-73.706519682,"ano":"2014"},{"id":"254d3cb6-5800-44ce-87f2-a19fbe564c53","region":"REGION LOS LAGOS","nombre":"SCOM.I.A.T. Y CARRET. LLANQUIHUE","tipo_unidad":"SUBCOMISARIA CARRETERAS","latitude":-41.3573254724,"longitude":-72.9802550577,"ano":"2014"},{"id":"26f1aea4-881a-438e-8b04-4845aae623c2","region":"REGION LOS LAGOS","nombre":"SCOM.I.A.T. Y CARRET. OSORNO","tipo_unidad":"SUBCOMISARIA CARRETERAS","latitude":-40.6405008954,"longitude":-73.1162589217,"ano":"2014"},{"id":"03d87089-cc95-43b7-8d0c-a2ff8622e0ed","region":"REGION LOS LAGOS","nombre":"TCIA. CASA PANGUE (F)","tipo_unidad":"TENENCIA","latitude":-41.0478456714,"longitude":-71.8777406947,"ano":"2014"},{"id":"8be7d7e7-ffa0-40ab-a866-5a0ae111b14f","region":"REGION LOS LAGOS","nombre":"TCIA. CHACAO (M)","tipo_unidad":"TENENCIA","latitude":-41.8295880438,"longitude":-73.5250604369,"ano":"2014"},{"id":"ee2d24bc-b520-4452-bdf3-555c92844ecc","region":"REGION LOS LAGOS","nombre":"TCIA. CHILOE (M.C)","tipo_unidad":"TENENCIA","latitude":-42.1413958372,"longitude":-73.7223848912,"ano":"2014"},{"id":"b5afc333-f9f6-4282-979b-9a586eba9a35","region":"REGION LOS LAGOS","nombre":"TCIA. CHONCHI","tipo_unidad":"TENENCIA","latitude":-42.6207033685,"longitude":-73.7742166018,"ano":"2014"},{"id":"85996a8f-f3c8-421e-94c0-45c97df0e77b","region":"REGION LOS LAGOS","nombre":"TCIA. DALCAHUE","tipo_unidad":"TENENCIA","latitude":-42.3789724225,"longitude":-73.6528127725,"ano":"2014"},{"id":"85503074-28d7-4cd2-828f-3d124731c1dd","region":"REGION LOS LAGOS","nombre":"TCIA. EL LIMITE (F)","tipo_unidad":"TENENCIA","latitude":-43.1767713034,"longitude":-71.7586420067,"ano":"2014"},{"id":"4380720a-a44a-47fe-9ec8-466a6e5396b1","region":"REGION LOS LAGOS","nombre":"TCIA. ENSENADA","tipo_unidad":"TENENCIA","latitude":-41.2084831234,"longitude":-72.5386319147,"ano":"2014"},{"id":"261f62c5-3bfe-45c7-ba93-e385faaa287b","region":"REGION LOS LAGOS","nombre":"TCIA. ENTRE LAGOS","tipo_unidad":"TENENCIA","latitude":-40.6860027558,"longitude":-72.6043440436,"ano":"2014"},{"id":"d6dc468b-96a7-4b37-97a1-e4abe4cf1864","region":"REGION LOS LAGOS","nombre":"TCIA. FRESIA","tipo_unidad":"TENENCIA","latitude":-41.1536566002,"longitude":-73.4173555224,"ano":"2014"},{"id":"d4107491-3eb8-4b24-bcb3-296708e351f2","region":"REGION LOS LAGOS","nombre":"TCIA. HORNOPIREN (F)","tipo_unidad":"TENENCIA","latitude":-41.9668185454,"longitude":-72.4718471337,"ano":"2014"},{"id":"7ca8e376-5490-42a1-8bb0-a8dc1d8877c0","region":"REGION LOS LAGOS","nombre":"TCIA. LAS QUEMAS","tipo_unidad":"TENENCIA","latitude":-41.4021911844,"longitude":-73.1812460027,"ano":"2014"},{"id":"fee09b00-a8a8-4fa7-a686-201ce1fc48ce","region":"REGION LOS LAGOS","nombre":"SCOM. LOS MUERMOS","tipo_unidad":"SUBCOMISARIA","latitude":-41.3946342556,"longitude":-73.4660179679,"ano":"2014"},{"id":"d15b4100-d78a-4a80-b5f1-38c6933d4f01","region":"REGION LOS LAGOS","nombre":"TCIA. PAJARITOS (F)","tipo_unidad":"TENENCIA","latitude":-40.7082324764,"longitude":-71.9538031127,"ano":"2014"},{"id":"b1cb2d01-c07d-4b88-a4ec-d45c79de8ca2","region":"REGION LOS LAGOS","nombre":"TCIA. PUERTO OCTAY","tipo_unidad":"TENENCIA","latitude":-40.9708895014,"longitude":-72.8839006257,"ano":"2014"},{"id":"5e712e15-133f-4f71-843b-563a9b9d7c63","region":"REGION LOS LAGOS","nombre":"SCOM. RELONCAVI","tipo_unidad":"SUBCOMISARIA","latitude":-41.4736173479,"longitude":-72.9106194532,"ano":"2014"},{"id":"a56fccab-0f19-4ad2-bd17-8d4ff15a477f","region":"REGION LOS LAGOS","nombre":"TCIA. RIO ENCUENTRO (F)","tipo_unidad":"TENENCIA","latitude":-43.5934567952,"longitude":-71.7127422757,"ano":"2014"},{"id":"8e41f412-ef71-49c5-8fb4-314822582846","region":"REGION LOS LAGOS","nombre":"TCIA. SAN PABLO","tipo_unidad":"TENENCIA","latitude":-40.411176039,"longitude":-73.0082134623,"ano":"2014"},{"id":"3eb21687-58a7-48bd-8850-b32eb0fd15ee","region":"REGION LA ARAUCANIA","nombre":"SCOM. LONQUIMAY (F)","tipo_unidad":"SUBCOMISARIA","latitude":-38.4531993024,"longitude":-71.3707100048,"ano":"2014"},{"id":"b9c30a81-abc1-4cb0-ae1f-3675bde49965","region":"REGION LA ARAUCANIA","nombre":"1RA. COM. ANGOL","tipo_unidad":"COMISARIA","latitude":-37.799317,"longitude":-72.712858,"ano":"2014"},{"id":"d502730b-2f25-4a33-b194-80dd002f34a8","region":"REGION LA ARAUCANIA","nombre":"1RA. COM. LAUTARO","tipo_unidad":"COMISARIA","latitude":-38.5255796696,"longitude":-72.4367160535,"ano":"2014"},{"id":"9efce593-5c93-47b8-95b5-49da6f7bbc13","region":"REGION LA ARAUCANIA","nombre":"2DA. COM. COLLIPULLI","tipo_unidad":"COMISARIA","latitude":-37.9578452941,"longitude":-72.4330016219,"ano":"2014"},{"id":"a6e5b470-f95a-40e0-ac0f-465af43548b3","region":"REGION LA ARAUCANIA","nombre":"2DA. COM. TEMUCO","tipo_unidad":"COMISARIA","latitude":-38.74043,"longitude":-72.58463,"ano":"2014"},{"id":"9eac6869-4bb8-48c8-934b-5563bb0b1593","region":"REGION LA ARAUCANIA","nombre":"3RA. COM. PADRE LAS CASAS","tipo_unidad":"COMISARIA","latitude":-38.75825,"longitude":-72.59288,"ano":"2014"},{"id":"f59bbf79-ddc7-48bc-a2e7-2cc193382664","region":"REGION LA ARAUCANIA","nombre":"3RA. COM. TRAIGUEN","tipo_unidad":"COMISARIA","latitude":-38.2461022596,"longitude":-72.6659931355,"ano":"2014"},{"id":"2c29953e-5d5b-4ddf-9f0f-d99c8c71dccf","region":"REGION LA ARAUCANIA","nombre":"4TA. COM. NVA. IMPERIAL","tipo_unidad":"COMISARIA","latitude":-38.7422375617,"longitude":-72.9525487125,"ano":"2014"},{"id":"bdc62c0e-64e3-4cdc-ac8d-2326c635c7bf","region":"REGION LA ARAUCANIA","nombre":"4TA. COM. VICTORIA","tipo_unidad":"COMISARIA","latitude":-38.2364790435,"longitude":-72.335885964,"ano":"2014"},{"id":"35a718ca-6569-46a9-9510-f93f32fce5ec","region":"REGION LA ARAUCANIA","nombre":"5TA. COM. CURACAUTIN","tipo_unidad":"COMISARIA","latitude":-38.4388856127,"longitude":-71.8833877305,"ano":"2014"},{"id":"fad53085-860f-4437-8efa-5b6a47d84e22","region":"REGION LA ARAUCANIA","nombre":"5TA. COM. PITRUFQUEN","tipo_unidad":"COMISARIA","latitude":-38.9867362695,"longitude":-72.6321751634,"ano":"2014"},{"id":"91aa0500-e8c3-46ce-b602-51a0b28e686b","region":"REGION LA ARAUCANIA","nombre":"6TA. COM. LONCOCHE","tipo_unidad":"COMISARIA","latitude":-39.3720381852,"longitude":-72.635822074,"ano":"2014"},{"id":"de057e44-7e0a-4428-9a8b-25ba865d7c3d","region":"REGION LA ARAUCANIA","nombre":"7MA. COM. VILLARRICA","tipo_unidad":"COMISARIA","latitude":-39.291186166,"longitude":-72.2222953597,"ano":"2014"},{"id":"f711da1d-bf3f-4f77-8c37-9d62f3e4be4c","region":"REGION LA ARAUCANIA","nombre":"8VA. COM. TEMUCO","tipo_unidad":"COMISARIA","latitude":-38.73249,"longitude":-72.64039,"ano":"2014"},{"id":"aa65d9fc-7efc-4475-85ca-bc1865ae06af","region":"REGION LA ARAUCANIA","nombre":"9NA. COM. PUCON","tipo_unidad":"COMISARIA","latitude":-39.2773333289,"longitude":-71.9777382389,"ano":"2014"},{"id":"9882e230-6bba-47de-9e69-1cbf1fa8fac6","region":"REGION LA ARAUCANIA","nombre":"RETEN BARROS ARANA","tipo_unidad":"RETEN","latitude":-38.986789,"longitude":-72.924718,"ano":"2014"},{"id":"367d2ee0-ade2-44f9-a323-cc0d940b4d9b","region":"REGION LA ARAUCANIA","nombre":"RETEN CAJON","tipo_unidad":"RETEN","latitude":-38.6775541866,"longitude":-72.5049938131,"ano":"2014"},{"id":"44ad5479-317d-4396-9d21-325eb72a1440","region":"REGION LA ARAUCANIA","nombre":"RETEN CATRIPULLI","tipo_unidad":"RETEN","latitude":-39.347496776,"longitude":-71.706090112,"ano":"2014"},{"id":"b3ab9dc5-29c3-4725-9c29-8e786afe5900","region":"REGION LA ARAUCANIA","nombre":"RETEN CHERQUENCO","tipo_unidad":"RETEN","latitude":-38.6855029409,"longitude":-72.0025823046,"ano":"2014"},{"id":"704b6594-54a5-48f0-b3de-4bc052b8f80c","region":"REGION LA ARAUCANIA","nombre":"RETEN CHOLCHOL","tipo_unidad":"RETEN","latitude":-38.6016543918,"longitude":-72.8461766686,"ano":"2014"},{"id":"ae351ec7-107e-4e24-b14e-799d88f33b57","region":"REGION LA ARAUCANIA","nombre":"RETEN COMUY","tipo_unidad":"RETEN","latitude":-39.023872274,"longitude":-72.966714156,"ano":"2014"},{"id":"e2208bfb-e3fa-4f6b-a32f-eff775920c23","region":"REGION LA ARAUCANIA","nombre":"RETEN CURACO","tipo_unidad":"RETEN","latitude":-38.020251461,"longitude":-72.355474019,"ano":"2014"},{"id":"84ae385d-53ef-4293-a4a6-6079d3ecc478","region":"REGION LA ARAUCANIA","nombre":"RETEN DOLLINCO","tipo_unidad":"RETEN","latitude":-38.484910101,"longitude":-72.147596627,"ano":"2014"},{"id":"b318b693-fd68-4c13-88cf-d21851311ae9","region":"REGION LA ARAUCANIA","nombre":"RETEN ESPERANZA","tipo_unidad":"RETEN","latitude":-37.844951033,"longitude":-72.393775945,"ano":"2014"},{"id":"d9a0c036-6486-43ee-bc2d-ebd589923e69","region":"REGION LA ARAUCANIA","nombre":"RETEN HUALPIN","tipo_unidad":"RETEN","latitude":-39.0881522474,"longitude":-73.1807506874,"ano":"2014"},{"id":"a77b83ed-149e-48b3-947d-6aae4d74101e","region":"REGION LA ARAUCANIA","nombre":"RETEN HUISCAPI","tipo_unidad":"RETEN","latitude":-39.29537,"longitude":-72.400405,"ano":"2014"},{"id":"cfc3f29f-84bc-4816-91b5-397ff307b9ed","region":"REGION LA ARAUCANIA","nombre":"RETEN ICALMA (F)","tipo_unidad":"RETEN","latitude":-38.811442038,"longitude":-71.282469483,"ano":"2014"},{"id":"01d2df9c-c660-47f5-abde-67123d357f1d","region":"REGION LA ARAUCANIA","nombre":"RETEN LA PAZ","tipo_unidad":"RETEN","latitude":-39.4097644151,"longitude":-72.7103189243,"ano":"2014"},{"id":"9d0e28aa-54fe-49b5-b448-c136da02fe6b","region":"REGION LA ARAUCANIA","nombre":"RETEN LAS HORTENSIAS","tipo_unidad":"RETEN","latitude":-38.940901128,"longitude":-72.151997926,"ano":"2014"},{"id":"b515ebd8-ecca-47f3-971e-39eb1757b0d6","region":"REGION LA ARAUCANIA","nombre":"RETEN LASTARRIA","tipo_unidad":"RETEN","latitude":-39.234991383,"longitude":-72.677731653,"ano":"2014"},{"id":"64a5b395-5bc1-49cc-b762-aebd805ae91c","region":"REGION LA ARAUCANIA","nombre":"RETEN LICAN RAY","tipo_unidad":"RETEN","latitude":-39.48753828,"longitude":-72.160503755,"ano":"2014"},{"id":"76b4d339-e247-4a1f-8593-bd18b2daf994","region":"REGION LA ARAUCANIA","nombre":"RETEN LOS LAURELES","tipo_unidad":"RETEN","latitude":-38.990367914,"longitude":-72.246838029,"ano":"2014"},{"id":"287ee18a-ef73-4c55-87d0-e8aadd914e80","region":"REGION LA ARAUCANIA","nombre":"RETEN LUMACO","tipo_unidad":"RETEN","latitude":-38.1672378259,"longitude":-72.9036111725,"ano":"2014"},{"id":"bbbe4e93-c165-400f-ab93-c015e8ce9da3","region":"REGION LA ARAUCANIA","nombre":"RETEN MALALCAHUELLO","tipo_unidad":"RETEN","latitude":-38.4739774,"longitude":-71.581917719,"ano":"2014"},{"id":"9c990d09-9af5-4a09-b2b8-b1ed1eed0efb","region":"REGION LA ARAUCANIA","nombre":"RETEN MANZANAR","tipo_unidad":"RETEN","latitude":-38.4667495001,"longitude":-71.7011266904,"ano":"2014"},{"id":"f482bb58-35e1-4eb2-a7bb-22265d2a5416","region":"REGION LA ARAUCANIA","nombre":"RETEN MELIPEUCO (F)","tipo_unidad":"RETEN","latitude":-38.8557087603,"longitude":-71.7013397465,"ano":"2014"},{"id":"a28fae42-d569-4aad-83a7-97e911c786f9","region":"REGION LA ARAUCANIA","nombre":"RETEN MININCO","tipo_unidad":"RETEN","latitude":-37.7970994237,"longitude":-72.4702750819,"ano":"2014"},{"id":"0d69547b-635a-4a80-8130-11c3469d666d","region":"REGION LA ARAUCANIA","nombre":"RETEN NEHUENTUE","tipo_unidad":"RETEN","latitude":-38.7453168138,"longitude":-73.4087522619,"ano":"2014"},{"id":"29836216-1f68-4043-9f92-dd30a4fd9d10","region":"REGION LA ARAUCANIA","nombre":"RETEN PAILAHUEQUE","tipo_unidad":"RETEN","latitude":-38.1355151731,"longitude":-72.3155082978,"ano":"2014"},{"id":"ced5bd5b-4b61-49a7-ba09-953b4d093f7c","region":"REGION LA ARAUCANIA","nombre":"RETEN PERQUENCO","tipo_unidad":"RETEN","latitude":-38.419817773,"longitude":-72.377359451,"ano":"2014"},{"id":"36fcb15e-3673-4976-823a-de846eef49d7","region":"REGION LA ARAUCANIA","nombre":"RETEN PICHI-PELLAHUEN","tipo_unidad":"RETEN","latitude":-38.325002,"longitude":-73.000162,"ano":"2014"},{"id":"75a386d2-908f-4c70-9173-22d96a11f500","region":"REGION LA ARAUCANIA","nombre":"RETEN PILLANLELBUN","tipo_unidad":"RETEN","latitude":-38.6343749964,"longitude":-72.4513934407,"ano":"2014"},{"id":"bfc97c1f-98e0-41f2-87cb-b6423456e402","region":"REGION LA ARAUCANIA","nombre":"RETEN PUA","tipo_unidad":"RETEN","latitude":-38.3364970767,"longitude":-72.3756645466,"ano":"2014"},{"id":"a5f9e4f9-0ee4-476c-8b24-7752a7408574","region":"REGION LA ARAUCANIA","nombre":"RETEN PUERTO DOMINGUEZ","tipo_unidad":"RETEN","latitude":-38.8970445094,"longitude":-73.2553644639,"ano":"2014"},{"id":"7ce3181f-d8cd-4d06-a616-999260edc565","region":"REGION LA ARAUCANIA","nombre":"RETEN QUEPE","tipo_unidad":"RETEN","latitude":-38.8671919392,"longitude":-72.613440197,"ano":"2014"},{"id":"830e7466-93d2-4c9f-9b1f-ffd52d05720b","region":"REGION LA ARAUCANIA","nombre":"RETEN QUEULE","tipo_unidad":"RETEN","latitude":-39.397719,"longitude":-73.209915,"ano":"2014"},{"id":"fef595bd-c10f-4750-af08-3961729ee7a2","region":"REGION LA ARAUCANIA","nombre":"RETEN QUILQUEN","tipo_unidad":"RETEN","latitude":-38.109743,"longitude":-72.708731,"ano":"2014"},{"id":"f0cbf654-f979-4042-8968-3325f10c5c23","region":"REGION LA ARAUCANIA","nombre":"RETEN QUITRATUE","tipo_unidad":"RETEN","latitude":-39.154868989,"longitude":-72.658829693,"ano":"2014"},{"id":"99ddf4a3-380b-48f7-a479-56e4aad06e78","region":"REGION LA ARAUCANIA","nombre":"RETEN RADAL","tipo_unidad":"RETEN","latitude":-38.98397934,"longitude":-72.392446392,"ano":"2014"},{"id":"93788092-ca6b-47b8-bd23-a1aa8f16fcfb","region":"REGION LA ARAUCANIA","nombre":"RETEN REIGOLIL (F)","tipo_unidad":"RETEN","latitude":-39.116442,"longitude":-71.474103,"ano":"2014"},{"id":"5647ba1d-240d-45d5-93b5-6293b486458e","region":"REGION LA ARAUCANIA","nombre":"RETEN SAN PATRICIO","tipo_unidad":"RETEN","latitude":-38.6612127716,"longitude":-72.1220997498,"ano":"2014"},{"id":"656a4a9d-0ba6-47a1-acca-888ad38f9086","region":"REGION LA ARAUCANIA","nombre":"RETEN SELVA OSCURA","tipo_unidad":"RETEN","latitude":-38.3680166193,"longitude":-72.1653717464,"ano":"2014"},{"id":"d1451096-6eb5-4244-bc75-34f6e6407e86","region":"REGION LA ARAUCANIA","nombre":"RETEN SIERRA NEVADA","tipo_unidad":"RETEN","latitude":-38.5632955996,"longitude":-71.4756286742,"ano":"2014"},{"id":"369e72ca-5f07-4e8e-9837-3bc97808cca5","region":"REGION LA ARAUCANIA","nombre":"TCIA. TEODORO SCHMIDT","tipo_unidad":"TENENCIA","latitude":-38.9934748044,"longitude":-73.0855356974,"ano":"2014"},{"id":"27278974-3eb8-43e5-bab0-a095b4ae139b","region":"REGION LA ARAUCANIA","nombre":"RETEN TIJERAL","tipo_unidad":"RETEN","latitude":-37.7338744643,"longitude":-72.6129565609,"ano":"2014"},{"id":"7925a7de-86c8-4624-98ed-743014f5bd92","region":"REGION LA ARAUCANIA","nombre":"RETEN TROVOLHUE","tipo_unidad":"RETEN","latitude":-38.630789308,"longitude":-73.3142896743,"ano":"2014"},{"id":"5e822dd0-5f2f-40ff-9c20-ecc9d1ce89dc","region":"REGION LA ARAUCANIA","nombre":"RETEN TROYO (F)","tipo_unidad":"RETEN","latitude":-38.25368,"longitude":-71.305199,"ano":"2014"},{"id":"9e3913ab-c21d-48de-b821-a168174c12fc","region":"REGION LA ARAUCANIA","nombre":"SCOM. CARAHUE","tipo_unidad":"SUBCOMISARIA","latitude":-38.711155934,"longitude":-73.168493934,"ano":"2014"},{"id":"bd711634-e73d-4d08-8257-b2fe6e1c9114","region":"REGION LA ARAUCANIA","nombre":"SCOM. LOS SAUCES","tipo_unidad":"SUBCOMISARIA","latitude":-37.9811754151,"longitude":-72.834860402,"ano":"2014"},{"id":"0466517e-19b2-450e-a68a-b5fa11d10b2f","region":"REGION LA ARAUCANIA","nombre":"TCIA. CAPITAN PASTENE","tipo_unidad":"TENENCIA","latitude":-38.1895836382,"longitude":-72.990734143,"ano":"2014"},{"id":"5c884911-fa0f-4511-a448-676302000424","region":"REGION LA ARAUCANIA","nombre":"TCIA. CARRET. CAUTIN SUR","tipo_unidad":"TENENCIA CARRETERAS","latitude":-39.356065,"longitude":-72.58347,"ano":"2014"},{"id":"b782b78e-bbea-403c-acb2-ff8620009979","region":"REGION LA ARAUCANIA","nombre":"TCIA. CARRET. MALLECO","tipo_unidad":"TENENCIA CARRETERAS","latitude":-38.272839004,"longitude":-72.363876917,"ano":"2014"},{"id":"3189d05d-fee8-4b54-9742-5b480b27138b","region":"REGION LA ARAUCANIA","nombre":"SCOM. I.A.T. CARRET. CAUTIN NORTE","tipo_unidad":"SUBCOMISARIA CARRETERAS","latitude":-38.625106,"longitude":-72.455074,"ano":"2014"},{"id":"0e7b1594-14a6-44d0-9737-6606e1cafa74","region":"REGION LA ARAUCANIA","nombre":"SCOM. CUNCO","tipo_unidad":"SUBCOMISARIA","latitude":-38.9318285797,"longitude":-72.0354795136,"ano":"2014"},{"id":"900b1939-f62a-4f2d-88aa-210a2175605d","region":"REGION LA ARAUCANIA","nombre":"TCIA. CURARREHUE (F)","tipo_unidad":"TENENCIA","latitude":-39.359462982,"longitude":-71.587532176,"ano":"2014"},{"id":"e531f3c4-5336-41ce-9a6b-2a52ebbc999b","region":"REGION LA ARAUCANIA","nombre":"SCOM. ERCILLA","tipo_unidad":"SUBCOMISARIA","latitude":-38.0646701384,"longitude":-72.378830201,"ano":"2014"},{"id":"918731ee-7c04-43e1-b071-a3e74e819ca9","region":"REGION LA ARAUCANIA","nombre":"TCIA. FREIRE","tipo_unidad":"TENENCIA","latitude":-38.9515596624,"longitude":-72.6234165725,"ano":"2014"},{"id":"9820ab21-2a66-4d7a-916b-dd9521eb5597","region":"REGION LA ARAUCANIA","nombre":"TCIA. GALVARINO","tipo_unidad":"TENENCIA","latitude":-38.4107551533,"longitude":-72.7829267628,"ano":"2014"},{"id":"e06822a2-ea4f-4cc3-9cdb-77cf7165a7c3","region":"REGION LA ARAUCANIA","nombre":"TCIA. GORBEA","tipo_unidad":"TENENCIA","latitude":-39.0975928822,"longitude":-72.6715990393,"ano":"2014"},{"id":"bc1b0b06-dc72-40f4-929b-6ddde23ca654","region":"REGION LA ARAUCANIA","nombre":"TCIA. LABRANZA","tipo_unidad":"TENENCIA","latitude":-38.766196376,"longitude":-72.752456622,"ano":"2014"},{"id":"97e5a149-e4fc-49ea-b922-159ee7ae37d1","region":"REGION LA ARAUCANIA","nombre":"TCIA. LIUCURA (F)","tipo_unidad":"TENENCIA","latitude":-38.645098936,"longitude":-71.09009837,"ano":"2014"},{"id":"632ec73b-851c-423d-9ba1-c1058194b798","region":"REGION LA ARAUCANIA","nombre":"TCIA. PUERTO SAAVEDRA","tipo_unidad":"TENENCIA","latitude":-38.785039275,"longitude":-73.397756741,"ano":"2014"},{"id":"a999699c-ce1b-4fbf-a068-db3d9fe92454","region":"REGION LA ARAUCANIA","nombre":"TCIA. PUREN","tipo_unidad":"TENENCIA","latitude":-38.0335944995,"longitude":-73.0703821685,"ano":"2014"},{"id":"63be8c41-a8c3-4eb8-9570-00c6f0980079","region":"REGION LA ARAUCANIA","nombre":"TCIA. RENAICO","tipo_unidad":"TENENCIA","latitude":-37.670724,"longitude":-72.589867,"ano":"2014"},{"id":"c3fdb33e-fb15-4eef-9472-93290f879e05","region":"REGION LA ARAUCANIA","nombre":"TCIA. TOLTEN","tipo_unidad":"TENENCIA","latitude":-39.1771366606,"longitude":-73.1694256424,"ano":"2014"},{"id":"f2e0f5ab-13df-4664-822b-6bf7947501fe","region":"REGION LA ARAUCANIA","nombre":"TCIA. VILCUN","tipo_unidad":"TENENCIA","latitude":-38.6713015135,"longitude":-72.2247836675,"ano":"2014"},{"id":"b6190ad2-6ff7-4a94-b2c4-28f2eee52c46","region":"REGION BIO BIO","nombre":"RETEN NINQUIHUE","tipo_unidad":"RETEN","latitude":-36.4775535514,"longitude":-72.0141215218,"ano":"2014"},{"id":"42d7fb24-5a5e-4b57-ab54-21f6fa405ecd","region":"REGION BIO BIO","nombre":"RETEN SAN NICOLAS","tipo_unidad":"RETEN","latitude":-36.5029827582,"longitude":-72.2135877328,"ano":"2014"},{"id":"2af4a7de-6ac3-4ed0-811c-5b50b5c6450e","region":"REGION BIO BIO","nombre":"RETEN VILLUCURA","tipo_unidad":"RETEN","latitude":-37.5555194053,"longitude":-71.9120066834,"ano":"2014"},{"id":"41482529-6e72-49c5-bb31-273b219c8d20","region":"REGION BIO BIO","nombre":"1RA. COM. ARAUCO","tipo_unidad":"COMISARIA","latitude":-37.247371229,"longitude":-73.322677605,"ano":"2014"},{"id":"c2c27eef-36a9-41b1-91fc-cff67271944f","region":"REGION BIO BIO","nombre":"1RA. COM. CONCEPCION","tipo_unidad":"COMISARIA","latitude":-36.830742,"longitude":-73.055258,"ano":"2014"},{"id":"a7071db1-cd9f-4707-8bb4-26a6caf8a7df","region":"REGION BIO BIO","nombre":"1RA. COM. LOS ANGELES","tipo_unidad":"COMISARIA","latitude":-37.4722621864,"longitude":-72.3513109006,"ano":"2014"},{"id":"cfc135ca-4c7b-4e77-8a19-c84ec245b244","region":"REGION BIO BIO","nombre":"1RA. COM. SAN CARLOS","tipo_unidad":"COMISARIA","latitude":-36.4235209903,"longitude":-71.9626384556,"ano":"2014"},{"id":"f4c8ebb1-e80f-420b-b362-1c031756d108","region":"REGION BIO BIO","nombre":"1RA. COM. TOME","tipo_unidad":"COMISARIA","latitude":-36.6183711744,"longitude":-72.9565035016,"ano":"2014"},{"id":"8a86cb5b-6126-45c9-8edf-02438b40eede","region":"REGION BIO BIO","nombre":"2DA. COM. CHILLAN","tipo_unidad":"COMISARIA","latitude":-36.6039414023,"longitude":-72.1053052237,"ano":"2014"},{"id":"5d5b2ece-0844-4b76-8122-32add152c523","region":"REGION BIO BIO","nombre":"4TA. COM. CORONEL","tipo_unidad":"COMISARIA","latitude":-37.0297236983,"longitude":-73.1459488982,"ano":"2014"},{"id":"e49ecd40-a214-4bea-903a-8f0e103029ff","region":"REGION BIO BIO","nombre":"2DA. COM. LEBU","tipo_unidad":"COMISARIA","latitude":-37.611781619,"longitude":-73.6561623248,"ano":"2014"},{"id":"1f0f73c0-3a80-4441-b366-25d62fa563ac","region":"REGION BIO BIO","nombre":"2DA. COM. MULCHEN","tipo_unidad":"COMISARIA","latitude":-37.719095764,"longitude":-72.2370758201,"ano":"2014"},{"id":"82a5a044-3b6b-4179-a473-6655b6896b6e","region":"REGION BIO BIO","nombre":"TCIA. HIGUERAS","tipo_unidad":"TENENCIA","latitude":-36.7464825661,"longitude":-73.1017874946,"ano":"2014"},{"id":"de180ed0-fe6f-4502-a35b-bf42bb6d00af","region":"REGION BIO BIO","nombre":"3RA. COM. BULNES","tipo_unidad":"COMISARIA","latitude":-36.7445395202,"longitude":-72.2900839382,"ano":"2014"},{"id":"bc751ebf-8e19-464c-8583-2aefc1c7f9f8","region":"REGION BIO BIO","nombre":"3RA. COM. CANETE","tipo_unidad":"COMISARIA","latitude":-37.800134951,"longitude":-73.3996276204,"ano":"2014"},{"id":"3ac19a8c-cf67-43e7-b1d3-906eb984cbed","region":"REGION BIO BIO","nombre":"3RA. COM. LOTA","tipo_unidad":"COMISARIA","latitude":-37.08862,"longitude":-73.15982,"ano":"2014"},{"id":"b8f95462-bae5-49c8-98bc-20bc41b90ae0","region":"REGION BIO BIO","nombre":"3RA. COM. NACIMIENTO","tipo_unidad":"COMISARIA","latitude":-37.5018696289,"longitude":-72.6683240179,"ano":"2014"},{"id":"96e48ccf-64bc-49ef-a106-78b709768531","region":"REGION BIO BIO","nombre":"3RA. COM. PENCO","tipo_unidad":"COMISARIA","latitude":-36.7395838019,"longitude":-72.9937358949,"ano":"2014"},{"id":"7b3ccb89-f4a6-4239-a9a7-54490cf0976c","region":"REGION BIO BIO","nombre":"4TA. COM. CURANILAHUE","tipo_unidad":"COMISARIA","latitude":-37.4740258756,"longitude":-73.3446694267,"ano":"2014"},{"id":"be29c507-2a9a-4207-9d5f-f4d926ead1e5","region":"REGION BIO BIO","nombre":"4TA. COM. HUALPEN","tipo_unidad":"COMISARIA","latitude":-36.7828125247,"longitude":-73.1020287815,"ano":"2014"},{"id":"69fc6f5f-75fa-445f-9617-37912f9f4f50","region":"REGION BIO BIO","nombre":"2DA. COM. CONCEPCION","tipo_unidad":"COMISARIA","latitude":-36.8114458628,"longitude":-73.0509914141,"ano":"2014"},{"id":"979ae2cc-24c5-4152-993f-8c08950066e2","region":"REGION BIO BIO","nombre":"4TA. COM. STA. BARBARA","tipo_unidad":"COMISARIA","latitude":-37.670136403,"longitude":-72.0265832803,"ano":"2014"},{"id":"fdf79fce-ed5a-47fb-9893-de5e4106b98c","region":"REGION BIO BIO","nombre":"4TA. COM. YUNGAY","tipo_unidad":"COMISARIA","latitude":-37.1179643853,"longitude":-72.0194460505,"ano":"2014"},{"id":"5c43cba3-d081-484f-aa56-a0dd9c08cf51","region":"REGION BIO BIO","nombre":"5TA. COM. QUIRIHUE","tipo_unidad":"COMISARIA","latitude":-36.2818641909,"longitude":-72.5398278891,"ano":"2014"},{"id":"ceb5c890-2a01-4872-b9ad-1e218615082e","region":"REGION BIO BIO","nombre":"5TA. COM. YUMBEL","tipo_unidad":"COMISARIA","latitude":-37.1006118981,"longitude":-72.5627860019,"ano":"2014"},{"id":"12fcef59-2910-4315-ad7e-fc0ade7e78ee","region":"REGION BIO BIO","nombre":"6TA. COM. CHILLAN VIEJO (S.U.)","tipo_unidad":"COMISARIA","latitude":-36.621604801,"longitude":-72.1340295518,"ano":"2014"},{"id":"fda8b05e-127c-45e3-8b86-e69347a03318","region":"REGION BIO BIO","nombre":"AVANZADA CUATRO JUNTAS","tipo_unidad":"AVANZADA","latitude":-37.216173028,"longitude":-71.320510213,"ano":"2014"},{"id":"965e453c-f04d-4e52-b891-28768134d212","region":"REGION BIO BIO","nombre":"AVANZADA GUAYALI","tipo_unidad":"AVANZADA","latitude":-37.93819653,"longitude":-71.208347035,"ano":"2014"},{"id":"0dad100b-7f13-4d81-8701-38ecf90ee59e","region":"REGION BIO BIO","nombre":"AVANZADA LOS BARROS","tipo_unidad":"AVANZADA","latitude":-37.468657843,"longitude":-71.320348987,"ano":"2014"},{"id":"0186ad31-4509-4b95-891f-552dc4d9725b","region":"REGION BIO BIO","nombre":"AVANZADA LOS COLUMPIOS (T.F.)","tipo_unidad":"AVANZADA","latitude":-37.1100199604,"longitude":-71.2440057942,"ano":"2014"},{"id":"df6a94a9-7232-459f-a7e5-8c4b52092aa1","region":"REGION BIO BIO","nombre":"AVANZADA PICHIRRINCON (T.F.)","tipo_unidad":"AVANZADA","latitude":-36.577570444,"longitude":-71.236449525,"ano":"2014"},{"id":"b1cb70e3-2123-4f24-be32-762b573d5330","region":"REGION BIO BIO","nombre":"AVANZADA TRAPA-TRAPA","tipo_unidad":"AVANZADA","latitude":-37.7272099957,"longitude":-71.2281400005,"ano":"2014"},{"id":"5c2cdc79-c1ab-4721-9787-e63480009892","region":"REGION BIO BIO","nombre":"RETEN ANTIHUALA","tipo_unidad":"RETEN","latitude":-37.672,"longitude":-73.390734,"ano":"2014"},{"id":"84aaf30a-cdd4-4be9-8e15-575ee380e466","region":"REGION BIO BIO","nombre":"SCOM. CABO 1 RENE SEPULVEDA","tipo_unidad":"SUBCOMISARIA","latitude":-37.4630862128,"longitude":-72.3713746506,"ano":"2014"},{"id":"70c87f3f-e290-4bf8-97c3-93bab095fb9d","region":"REGION BIO BIO","nombre":"RETEN CACHAPOAL","tipo_unidad":"RETEN","latitude":-36.4555844223,"longitude":-71.7669658171,"ano":"2014"},{"id":"322e50f7-35a4-47a4-b86a-88968b1560ec","region":"REGION BIO BIO","nombre":"RETEN CAMPANARIO","tipo_unidad":"RETEN","latitude":-37.1342620016,"longitude":-72.1885104176,"ano":"2014"},{"id":"e0c45e2e-d6d8-4666-a525-02ea53f3b024","region":"REGION BIO BIO","nombre":"RETEN CANTERAS","tipo_unidad":"RETEN","latitude":-37.4040861039,"longitude":-72.0138335461,"ano":"2014"},{"id":"7dd7c207-be39-42b1-a800-21732e5ad840","region":"REGION BIO BIO","nombre":"RETEN CARAMPANGUE","tipo_unidad":"RETEN","latitude":-37.25734893,"longitude":-73.243111524,"ano":"2014"},{"id":"a8b2f4c9-171a-49a9-98d7-6fb7f044834b","region":"REGION BIO BIO","nombre":"RETEN CATO","tipo_unidad":"RETEN","latitude":-36.543636,"longitude":-71.779693,"ano":"2014"},{"id":"0e6addc0-4ecf-4ca5-9e46-f6d1657ad9bc","region":"REGION BIO BIO","nombre":"RETEN CENTINELA","tipo_unidad":"RETEN","latitude":-37.1433148758,"longitude":-72.5384402839,"ano":"2014"},{"id":"c12a0e37-fcc7-408e-8165-052957210832","region":"REGION BIO BIO","nombre":"RETEN COBQUECURA","tipo_unidad":"RETEN","latitude":-36.130698579,"longitude":-72.794507133,"ano":"2014"},{"id":"7544b129-a0b0-425c-9fe6-d11f7277e884","region":"REGION BIO BIO","nombre":"RETEN COPIULEMU","tipo_unidad":"RETEN","latitude":-36.89549158,"longitude":-72.808245065,"ano":"2014"},{"id":"28d2d8a0-8984-4cea-b1fb-b9522cff2eac","region":"REGION BIO BIO","nombre":"RETEN DICHATO","tipo_unidad":"RETEN","latitude":-36.547957082,"longitude":-72.935763012,"ano":"2014"},{"id":"2d36305f-06ac-4c82-9624-fcbfaaafa012","region":"REGION BIO BIO","nombre":"RETEN EL ALAMO","tipo_unidad":"RETEN","latitude":-37.432242818,"longitude":-72.184624773,"ano":"2014"},{"id":"eddf3b97-af3e-4624-b9e0-367073a8bf82","region":"REGION BIO BIO","nombre":"RETEN GUARILIHUE","tipo_unidad":"RETEN","latitude":-36.569459955,"longitude":-72.699758937,"ano":"2014"},{"id":"31d236fe-2dee-4387-97ff-777a8b1f675f","region":"REGION BIO BIO","nombre":"RETEN ISLA MOCHA","tipo_unidad":"RETEN","latitude":-38.343408301,"longitude":-73.912562192,"ano":"2014"},{"id":"55c983a3-95e1-4231-bd2e-ac5cdbe1eb5d","region":"REGION BIO BIO","nombre":"RETEN ISLA SANTA MARIA","tipo_unidad":"RETEN","latitude":-37.043383178,"longitude":-73.511849033,"ano":"2014"},{"id":"96cd1990-d8fc-4646-b237-bd5517646690","region":"REGION BIO BIO","nombre":"RETEN LO ROJAS","tipo_unidad":"RETEN","latitude":-37.02337,"longitude":-73.16795,"ano":"2014"},{"id":"ca147647-72c3-469e-b721-1b9b9b7049e0","region":"REGION BIO BIO","nombre":"RETEN LONCOPANGUE","tipo_unidad":"RETEN","latitude":-37.768142,"longitude":-71.774117,"ano":"2014"},{"id":"0f758b1c-4b8e-4fa1-be5c-2d0706e3b517","region":"REGION BIO BIO","nombre":"RETEN MONTE AGUILA","tipo_unidad":"RETEN","latitude":-37.086259167,"longitude":-72.4415314256,"ano":"2014"},{"id":"8ac2e655-23a8-44d2-9341-488f4150266e","region":"REGION BIO BIO","nombre":"RETEN NINHUE","tipo_unidad":"RETEN","latitude":-36.394387159,"longitude":-72.397112821,"ano":"2014"},{"id":"c26832eb-22fb-4fea-b314-43ac2296558b","region":"REGION BIO BIO","nombre":"RETEN NIPAS","tipo_unidad":"RETEN","latitude":-36.6062017417,"longitude":-72.5340361242,"ano":"2014"},{"id":"ad104761-2135-4703-a2db-95ff05583c22","region":"REGION BIO BIO","nombre":"RETEN NIQUEN","tipo_unidad":"RETEN","latitude":-36.290731055,"longitude":-71.897135123,"ano":"2014"},{"id":"389d4f4b-5f4b-4f04-874b-5754d183b440","region":"REGION BIO BIO","nombre":"RETEN POLCURA","tipo_unidad":"RETEN","latitude":-37.2866153048,"longitude":-71.7248167507,"ano":"2014"},{"id":"418e4989-a2a3-4c4f-9f7d-b0bc8e5be7e0","region":"REGION BIO BIO","nombre":"RETEN PORTEZUELO","tipo_unidad":"RETEN","latitude":-36.527994444,"longitude":-72.427063636,"ano":"2014"},{"id":"abdae3a5-ec02-4aa4-badb-46c3a470e12d","region":"REGION BIO BIO","nombre":"RETEN QUILACO","tipo_unidad":"RETEN","latitude":-37.6843524202,"longitude":-72.004654058,"ano":"2014"},{"id":"1b0bbfa5-7950-4038-99e1-8d6519f1f15d","region":"REGION BIO BIO","nombre":"RETEN QUILACOYA","tipo_unidad":"RETEN","latitude":-37.0538732486,"longitude":-72.9625168332,"ano":"2014"},{"id":"6ba189de-0083-4eed-b5e4-dffa2f454067","region":"REGION BIO BIO","nombre":"RETEN QUILLECO","tipo_unidad":"RETEN","latitude":-37.4759366952,"longitude":-71.9820073457,"ano":"2014"},{"id":"0acb8b53-b209-4465-ab70-a066a5eac19e","region":"REGION BIO BIO","nombre":"RETEN QUINCHAMALI","tipo_unidad":"RETEN","latitude":-36.6511657639,"longitude":-72.413132255,"ano":"2014"},{"id":"d93b6e40-7510-4d3e-80f7-e8e7214cc21c","region":"REGION BIO BIO","nombre":"RETEN QUIRIQUINA","tipo_unidad":"RETEN","latitude":-36.8407253534,"longitude":-72.1013097665,"ano":"2014"},{"id":"4e04703c-97af-4f9c-92a7-d9f80dac2fae","region":"REGION BIO BIO","nombre":"RETEN RAFAEL","tipo_unidad":"RETEN","latitude":-36.6299815165,"longitude":-72.7941683888,"ano":"2014"},{"id":"a48ea138-6dfc-46e1-a193-cef289d63b07","region":"REGION BIO BIO","nombre":"RETEN RECINTO","tipo_unidad":"RETEN","latitude":-36.845685167,"longitude":-71.658156122,"ano":"2014"},{"id":"d7b269e5-db1d-4b23-8daf-42999c07059c","region":"REGION BIO BIO","nombre":"RETEN RERE","tipo_unidad":"RETEN","latitude":-37.132781927,"longitude":-72.728146711,"ano":"2014"},{"id":"67253efb-65cd-49e7-89c9-127cbce66aa8","region":"REGION BIO BIO","nombre":"RETEN RIO CLARO","tipo_unidad":"RETEN","latitude":-37.1988134899,"longitude":-72.6192352025,"ano":"2014"},{"id":"400c75fa-2360-420d-9c30-cde903a25fec","region":"REGION BIO BIO","nombre":"RETEN RUCALHUE","tipo_unidad":"RETEN","latitude":-37.7124808958,"longitude":-71.9044342211,"ano":"2014"},{"id":"a2459852-2bf0-447f-b3e0-5dc2b63f9cd2","region":"REGION BIO BIO","nombre":"RETEN RUCAPEQUEN","tipo_unidad":"RETEN","latitude":-36.672268941,"longitude":-72.279294166,"ano":"2014"},{"id":"30219c2f-3294-4a65-8eac-af8f7044fd5e","region":"REGION BIO BIO","nombre":"RETEN SALTO DEL LAJA","tipo_unidad":"RETEN","latitude":-37.1883617343,"longitude":-72.3926818761,"ano":"2014"},{"id":"9c0ebfe6-5b1a-408f-bfc1-773bbdde133e","region":"REGION BIO BIO","nombre":"RETEN SAN CARLOS DE PUREN","tipo_unidad":"RETEN","latitude":-37.5940673838,"longitude":-72.2776270444,"ano":"2014"},{"id":"24f4816a-c5c4-4dbb-ac92-ffaa1ca45ffa","region":"REGION BIO BIO","nombre":"RETEN SAN IGNACIO","tipo_unidad":"RETEN","latitude":-36.8020974399,"longitude":-72.0287742061,"ano":"2014"},{"id":"0d1e37f8-070f-47db-b63c-8eb740e3c9af","region":"REGION BIO BIO","nombre":"RETEN SAN MIGUEL","tipo_unidad":"RETEN","latitude":-36.81393927,"longitude":-71.967349032,"ano":"2014"},{"id":"b351db1b-47c6-4631-8e08-48c60a7cd4b0","region":"REGION BIO BIO","nombre":"RETEN SAN ROSENDO","tipo_unidad":"RETEN","latitude":-37.2634548438,"longitude":-72.7227117186,"ano":"2014"},{"id":"beea3f0c-72f8-489e-8ff6-571ca2c87115","region":"REGION BIO BIO","nombre":"RETEN SANTA CLARA","tipo_unidad":"RETEN","latitude":-36.8236326558,"longitude":-72.3288103515,"ano":"2014"},{"id":"c4959200-0fc8-49f1-a91a-f11bc65c56ef","region":"REGION BIO BIO","nombre":"RETEN SANTA FE","tipo_unidad":"RETEN","latitude":-37.4662451742,"longitude":-72.5833180681,"ano":"2014"},{"id":"c88ebc60-680e-46e8-91f0-cd109cea7e6e","region":"REGION BIO BIO","nombre":"RETEN TALCAMAVIDA","tipo_unidad":"RETEN","latitude":-37.1622001529,"longitude":-72.9063552864,"ano":"2014"},{"id":"ca4ef79e-3a67-4fb7-8fdc-b89f2085f3ed","region":"REGION BIO BIO","nombre":"RETEN TANILVORO","tipo_unidad":"RETEN","latitude":-36.7265063017,"longitude":-71.8209393867,"ano":"2014"},{"id":"d15db9f0-6f89-45c6-ac53-374afa3fb3d8","region":"REGION BIO BIO","nombre":"RETEN TOMECO","tipo_unidad":"RETEN","latitude":-36.9878225235,"longitude":-72.6249615304,"ano":"2014"},{"id":"40781bd0-8ab8-4fc0-85e1-76a4daa9221f","region":"REGION BIO BIO","nombre":"RETEN TREHUACO","tipo_unidad":"RETEN","latitude":-36.4306541248,"longitude":-72.6677224974,"ano":"2014"},{"id":"2f41f6c6-b116-430b-9e51-10b8c01eb71b","region":"REGION BIO BIO","nombre":"RETEN TRUPAN","tipo_unidad":"RETEN","latitude":-37.2763712307,"longitude":-71.8338216718,"ano":"2014"},{"id":"2372f95b-8639-40e2-95a2-76f5e551d2dd","region":"REGION BIO BIO","nombre":"RETEN TUCAPEL","tipo_unidad":"RETEN","latitude":-37.293094287,"longitude":-71.9515203927,"ano":"2014"},{"id":"bc122b1f-4186-4ee7-935f-c030be0793cc","region":"REGION BIO BIO","nombre":"RETEN VEGAS DE ITATA","tipo_unidad":"RETEN","latitude":-36.402093306,"longitude":-72.851070159,"ano":"2014"},{"id":"63ef4765-2aab-4dfe-952b-1c7cfd139d68","region":"REGION BIO BIO","nombre":"SCOM. CABRERO","tipo_unidad":"SUBCOMISARIA","latitude":-37.0376409396,"longitude":-72.4052265731,"ano":"2014"},{"id":"dddeed25-c4ea-4bd9-a510-da1549e44693","region":"REGION BIO BIO","nombre":"7MA. COM. CHIGUAYANTE","tipo_unidad":"COMISARIA","latitude":-36.9397137107,"longitude":-73.0268997236,"ano":"2014"},{"id":"5175138b-78c2-4385-a19f-bb287ddf5e60","region":"REGION BIO BIO","nombre":"SCOM. COELEMU","tipo_unidad":"SUBCOMISARIA","latitude":-36.486224107,"longitude":-72.7005271,"ano":"2014"},{"id":"305abe7d-f8b0-40ad-99bd-96d56f37c15c","region":"REGION BIO BIO","nombre":"SCOM. COIHUECO","tipo_unidad":"SUBCOMISARIA","latitude":-36.6288563097,"longitude":-71.8394143846,"ano":"2014"},{"id":"d96e3ae2-64fc-4765-a464-2c260d857a60","region":"REGION BIO BIO","nombre":"SCOM. HUAMBALI","tipo_unidad":"SUBCOMISARIA","latitude":-36.623989,"longitude":-72.098381,"ano":"2014"},{"id":"caec3c3e-7b70-482c-9ef1-a3902f4ca8dc","region":"REGION BIO BIO","nombre":"SCOM. LAJA","tipo_unidad":"SUBCOMISARIA","latitude":-37.2773905958,"longitude":-72.7165485109,"ano":"2014"},{"id":"509556d1-cc9c-4cbd-be48-d60248f19ce6","region":"REGION BIO BIO","nombre":"SCOM. PAILLIHUE","tipo_unidad":"SUBCOMISARIA","latitude":-37.4874559094,"longitude":-72.3424874058,"ano":"2014"},{"id":"125e996b-41a6-43c7-9bbe-d13137759982","region":"REGION BIO BIO","nombre":"SCOM. SAN FABIAN (F)","tipo_unidad":"SUBCOMISARIA","latitude":-36.559835646,"longitude":-71.548455629,"ano":"2014"},{"id":"3b9c5c3b-b204-48fa-99a6-b28acde83a17","region":"REGION BIO BIO","nombre":"TCIA. SAN PEDRO","tipo_unidad":"TENENCIA","latitude":-36.842275994,"longitude":-73.1132528516,"ano":"2014"},{"id":"f220c3c5-3029-4b2d-99e4-5ab05a2acdc9","region":"REGION BIO BIO","nombre":"SCOM. VILLA MORA","tipo_unidad":"SUBCOMISARIA","latitude":-37.0072427675,"longitude":-73.1588128995,"ano":"2014"},{"id":"5078cfb7-e2eb-43bf-a852-8d2ff4aed1d6","region":"REGION BIO BIO","nombre":"TCIA. ANTUCO (F)","tipo_unidad":"TENENCIA","latitude":-37.3290636735,"longitude":-71.6598788739,"ano":"2014"},{"id":"67d8b363-f666-4ffc-9763-42a1b5d27a5b","region":"REGION BIO BIO","nombre":"TCIA. BIO BIO (F)","tipo_unidad":"TENENCIA","latitude":-37.882419,"longitude":-71.636363,"ano":"2014"},{"id":"987f399f-8135-40bd-8496-bb681cf2df57","region":"REGION BIO BIO","nombre":"TCIA. CARRET. BIO BIO","tipo_unidad":"TENENCIA CARRETERAS","latitude":-37.545856462,"longitude":-72.308650963,"ano":"2014"},{"id":"092be9b7-65c1-4351-9270-07d3ed1ab885","region":"REGION BIO BIO","nombre":"TCIA. CARRET. LARAQUETE (M.C.)","tipo_unidad":"TENENCIA CARRETERAS","latitude":-37.167412,"longitude":-73.186455,"ano":"2014"},{"id":"67954332-a5c2-4b19-bdca-f4f1c6ebfb2d","region":"REGION BIO BIO","nombre":"TCIA. CENTENARIO","tipo_unidad":"TENENCIA","latitude":-37.4567873722,"longitude":-72.3452699,"ano":"2014"},{"id":"629a035f-e6c5-4125-87f5-435006298ce1","region":"REGION BIO BIO","nombre":"TCIA. CONTULMO","tipo_unidad":"TENENCIA","latitude":-38.006115,"longitude":-73.228649,"ano":"2014"},{"id":"cf4f12bb-9912-4439-8068-9ecac90596d4","region":"REGION BIO BIO","nombre":"TCIA. EL CARMEN","tipo_unidad":"TENENCIA","latitude":-36.898843051,"longitude":-72.0322458965,"ano":"2014"},{"id":"0591d3f6-53ca-44f3-9dd7-e8c61946abc1","region":"REGION BIO BIO","nombre":"TCIA. FLORIDA","tipo_unidad":"TENENCIA","latitude":-36.8264322058,"longitude":-72.6609100011,"ano":"2014"},{"id":"22a7fa89-19b3-49f8-901e-3ed2f6a2fdac","region":"REGION BIO BIO","nombre":"TCIA. HUALQUI","tipo_unidad":"TENENCIA","latitude":-36.9751673353,"longitude":-72.940637325,"ano":"2014"},{"id":"73dc017f-7376-4262-b654-8bc5d125d6de","region":"REGION BIO BIO","nombre":"TCIA. HUEPIL","tipo_unidad":"TENENCIA","latitude":-37.2435933344,"longitude":-71.9446894303,"ano":"2014"},{"id":"f680a161-c539-4394-8b25-6bd5e28ab8a3","region":"REGION BIO BIO","nombre":"SCOM. LAGUNILLAS CARAB. RODOLFO ORELLANA","tipo_unidad":"SUBCOMISARIA","latitude":-36.981581,"longitude":-73.15811,"ano":"2014"},{"id":"ce06ee11-7aad-4b70-9c1f-c7bbeacacfe9","region":"REGION BIO BIO","nombre":"TCIA. LAS TRANCAS (F)","tipo_unidad":"TENENCIA","latitude":-36.9111053097,"longitude":-71.4797243481,"ano":"2014"},{"id":"f9fb075a-7a45-40d4-a836-813bec09360b","region":"REGION BIO BIO","nombre":"TCIA. LIRQUEN","tipo_unidad":"TENENCIA","latitude":-36.714246613,"longitude":-72.9744560771,"ano":"2014"},{"id":"011d09ef-b8e3-47d7-b3d6-a585747932af","region":"REGION BIO BIO","nombre":"SCOM. LOS ALAMOS","tipo_unidad":"SUBCOMISARIA","latitude":-37.6274708492,"longitude":-73.458698575,"ano":"2014"},{"id":"f8eb7a51-2a21-4520-aa45-b71c48023724","region":"REGION BIO BIO","nombre":"TCIA. NEGRETE","tipo_unidad":"TENENCIA","latitude":-37.585171825,"longitude":-72.5273077085,"ano":"2014"},{"id":"c8c52943-6706-474a-948f-553baaeb736d","region":"REGION BIO BIO","nombre":"TCIA. PEMUCO","tipo_unidad":"TENENCIA","latitude":-36.9785875866,"longitude":-72.0972365022,"ano":"2014"},{"id":"be7f2ade-d10a-469d-82e9-092e06d6b4a7","region":"REGION BIO BIO","nombre":"TCIA. PINTO","tipo_unidad":"TENENCIA","latitude":-36.701984592,"longitude":-71.892680093,"ano":"2014"},{"id":"566f3e87-029c-4f3a-8181-ddb4383a4ad1","region":"REGION BIO BIO","nombre":"SCOM. QUILLON","tipo_unidad":"SUBCOMISARIA","latitude":-36.7435763525,"longitude":-72.4769124299,"ano":"2014"},{"id":"0ad46b8b-fef5-41b9-a43a-db17102fca76","region":"REGION BIO BIO","nombre":"TCIA. SAN GREGORIO","tipo_unidad":"TENENCIA","latitude":-36.2820152947,"longitude":-71.8150198565,"ano":"2014"},{"id":"94e8d493-9967-4255-a68f-41800f65b96d","region":"REGION BIO BIO","nombre":"TCIA. SANTA JUANA","tipo_unidad":"TENENCIA","latitude":-37.1767038694,"longitude":-72.9365330613,"ano":"2014"},{"id":"5d34a480-373a-4227-978c-b0079c5abc41","region":"REGION BIO BIO","nombre":"SCOM. TIRUA","tipo_unidad":"SUBCOMISARIA","latitude":-38.3445034308,"longitude":-73.4933320476,"ano":"2014"},{"id":"33c32e47-7807-48a1-8008-c359cc0e1eaa","region":"REGION BIO BIO","nombre":"SCOM. CARRET. NUBLE","tipo_unidad":"SUBCOMISARIA","latitude":-36.541448359,"longitude":-72.088410243,"ano":"2014"},{"id":"687058b2-a956-4e9f-b64c-84e6e5060756","region":"REGION BIO BIO","nombre":"TCIA. CHILLAN OTE.","tipo_unidad":"TENENCIA","latitude":-36.607731,"longitude":-72.075879,"ano":"2014"},{"id":"de65d087-b158-450b-9e77-f082d9d75c7b","region":"REGION BIO BIO","nombre":"6TA. COM. SAN PEDRO DE LA PAZ","tipo_unidad":"COMISARIA","latitude":-36.8545372374,"longitude":-73.1377954738,"ano":"2014"},{"id":"91c52eb9-e227-4eda-9ca0-88a58ecbdc91","region":"REGION BIO BIO","nombre":"2DA. COM. TALCAHUANO","tipo_unidad":"COMISARIA","latitude":-36.7160065229,"longitude":-73.1096165709,"ano":"2014"},{"id":"487e73bd-e7e8-4c90-8a7e-4ef1667452c2","region":"REGION BIO BIO","nombre":"5TA. COM. FUERZAS ESPECIALES CONCEPCION","tipo_unidad":"COMISARIA","latitude":-36.78251281,"longitude":-73.05837109,"ano":"2014"},{"id":"2cceac5b-13c3-4a86-9167-730114e3d363","region":"REGION MAULE","nombre":"1RA. COM. CURICO","tipo_unidad":"COMISARIA","latitude":-34.989851,"longitude":-71.242528,"ano":"2014"},{"id":"56fc4557-04a3-4236-b0c0-51a4a0366c68","region":"REGION MAULE","nombre":"1RA. COM. LINARES","tipo_unidad":"COMISARIA","latitude":-35.84933,"longitude":-71.598902,"ano":"2014"},{"id":"d8336593-36d5-4a0e-bd39-ee2eda7fb692","region":"REGION MAULE","nombre":"1RA. COM. SAN CLEMENTE","tipo_unidad":"COMISARIA","latitude":-35.536062101,"longitude":-71.485731259,"ano":"2014"},{"id":"1c940687-649d-47fc-bcec-72fdf66abd80","region":"REGION MAULE","nombre":"2DA. COM. CHANCO","tipo_unidad":"COMISARIA","latitude":-35.73445777,"longitude":-72.534407226,"ano":"2014"},{"id":"454871b7-aa86-4e4c-9bde-f27b2946892c","region":"REGION MAULE","nombre":"2DA. COM. CONSTITUCION","tipo_unidad":"COMISARIA","latitude":-35.3305238105,"longitude":-72.4116905407,"ano":"2014"},{"id":"e6c718a0-5741-41f6-9c10-9c791fd369c8","region":"REGION MAULE","nombre":"2DA. COM. LICANTEN","tipo_unidad":"COMISARIA","latitude":-34.985079246,"longitude":-71.985921057,"ano":"2014"},{"id":"6f0286ee-9644-4f2a-b307-8ca4e8847e1e","region":"REGION MAULE","nombre":"3RA. COM. PARRAL","tipo_unidad":"COMISARIA","latitude":-36.14829322,"longitude":-71.81746475,"ano":"2014"},{"id":"239072c8-f673-4591-a0ec-55a07c714533","region":"REGION MAULE","nombre":"3RA. COM. TALCA","tipo_unidad":"COMISARIA","latitude":-35.421251,"longitude":-71.666756,"ano":"2014"},{"id":"93a683bd-8945-4af8-a909-1787642f9302","region":"REGION MAULE","nombre":"3RA. COM. TENO","tipo_unidad":"COMISARIA","latitude":-34.8783909171,"longitude":-71.164731359,"ano":"2014"},{"id":"1951c1b4-efee-4032-bfc4-ced138f2a072","region":"REGION MAULE","nombre":"4TA. COM. CANCHA RAYADA","tipo_unidad":"COMISARIA","latitude":-35.40485,"longitude":-71.653162,"ano":"2014"},{"id":"5bda4a24-92d4-493b-9f6e-f4b2b798f88a","region":"REGION MAULE","nombre":"4TA. COM. CAUQUENES","tipo_unidad":"COMISARIA","latitude":-35.9672605353,"longitude":-72.3100113117,"ano":"2014"},{"id":"899f9b08-bfa3-4ec8-b51f-90574c69a357","region":"REGION MAULE","nombre":"4TA. COM. MOLINA","tipo_unidad":"COMISARIA","latitude":-35.1159338808,"longitude":-71.2800767996,"ano":"2014"},{"id":"03771b89-59ed-428a-85d5-8e5331f49c13","region":"REGION MAULE","nombre":"5TA. COM. SAN JAVIER","tipo_unidad":"COMISARIA","latitude":-35.5931735557,"longitude":-71.7312589049,"ano":"2014"},{"id":"2d5dfa66-6037-47c1-8775-81e049975e8c","region":"REGION MAULE","nombre":"AVANZADA CABECERAS DEL GRANDE","tipo_unidad":"AVANZADA","latitude":-35.750248379,"longitude":-70.482723403,"ano":"2014"},{"id":"0c4e517e-9653-455e-b094-0af7b2f3c340","region":"REGION MAULE","nombre":"AVANZADA CARRIZALES","tipo_unidad":"AVANZADA","latitude":-35.197905075,"longitude":-70.649886877,"ano":"2014"},{"id":"d25558b5-d5a9-4899-aafb-ee7a218dbca4","region":"REGION MAULE","nombre":"AVANZADA LAS TORRES","tipo_unidad":"AVANZADA","latitude":-35.850941107,"longitude":-70.451168773,"ano":"2014"},{"id":"0faa6e84-d5b9-4782-9b90-fd06c495dfbe","region":"REGION MAULE","nombre":"AVANZADA LOS RETAMOS","tipo_unidad":"AVANZADA","latitude":-35.373596342,"longitude":-70.6066731396,"ano":"2014"},{"id":"4ecc1962-2ffb-4282-86e4-2cbc5d4585a6","region":"REGION MAULE","nombre":"AVANZADA PICHUANTE","tipo_unidad":"AVANZADA","latitude":-35.091716965,"longitude":-70.493711208,"ano":"2014"},{"id":"167c95eb-e7aa-4bbf-96e3-c7b024c03b6c","region":"REGION MAULE","nombre":"AVANZADA PIEDRAS COLORADAS","tipo_unidad":"AVANZADA","latitude":-36.095892,"longitude":-70.487448,"ano":"2014"},{"id":"699b608a-2820-427a-91e1-a48106424917","region":"REGION MAULE","nombre":"AVANZADA POTRERILLOS","tipo_unidad":"AVANZADA","latitude":-35.416256,"longitude":-70.471796,"ano":"2014"},{"id":"3b20fb8a-c408-4a3b-acad-cbe2a0fccf25","region":"REGION MAULE","nombre":"RETEN ACHIBUENO (F)","tipo_unidad":"RETEN","latitude":-36.086714,"longitude":-71.388732,"ano":"2014"},{"id":"1cffbbb4-ccf2-4e77-855b-f4b8bf4f3feb","region":"REGION MAULE","nombre":"RETEN AGUA FRIA (F)","tipo_unidad":"RETEN","latitude":-35.306628912,"longitude":-71.091796277,"ano":"2014"},{"id":"ad1bc3a9-af49-4287-a54e-f3cfdcfd2153","region":"REGION MAULE","nombre":"RETEN AQUELARRE","tipo_unidad":"RETEN","latitude":-34.849288025,"longitude":-72.038923061,"ano":"2014"},{"id":"6b4c4f31-a503-4359-adf9-73ff2fb6029e","region":"REGION MAULE","nombre":"RETEN BAJOS DE LIRCAY","tipo_unidad":"RETEN","latitude":-35.49726366,"longitude":-71.317009403,"ano":"2014"},{"id":"db81f565-9f52-45fd-810c-e06b03403410","region":"REGION MAULE","nombre":"RETEN BOTALCURA","tipo_unidad":"RETEN","latitude":-35.282124125,"longitude":-71.774710679,"ano":"2014"},{"id":"16dec64d-e5ae-40d1-9114-f4b2a14e5516","region":"REGION MAULE","nombre":"RETEN BUENA PAZ","tipo_unidad":"RETEN","latitude":-35.160367,"longitude":-71.165301,"ano":"2014"},{"id":"9b879e93-243d-45e5-8a7c-c12188567e02","region":"REGION MAULE","nombre":"RETEN BULLILEO (F)","tipo_unidad":"RETEN","latitude":-36.287556828,"longitude":-71.416038872,"ano":"2014"},{"id":"020f2333-c9db-480c-8661-2c5b7beb2189","region":"REGION MAULE","nombre":"RETEN CAMARICO","tipo_unidad":"RETEN","latitude":-35.220293435,"longitude":-71.423837699,"ano":"2014"},{"id":"4bdee012-0929-4918-8de1-6535c1b767db","region":"REGION MAULE","nombre":"RETEN CATILLO","tipo_unidad":"RETEN","latitude":-36.288082021,"longitude":-71.652089872,"ano":"2014"},{"id":"45fece67-6eaa-4f9f-831d-db345558914a","region":"REGION MAULE","nombre":"RETEN COLIN","tipo_unidad":"RETEN","latitude":-35.47122135,"longitude":-71.746617952,"ano":"2014"},{"id":"2ce47809-ea21-4886-8e1d-235abd75f708","region":"REGION MAULE","nombre":"RETEN COMALLE","tipo_unidad":"RETEN","latitude":-34.860149448,"longitude":-71.264354813,"ano":"2014"},{"id":"4736ed47-a0ed-4900-b25d-6fd06995c98b","region":"REGION MAULE","nombre":"RETEN CONVENTO","tipo_unidad":"RETEN","latitude":-36.054965543,"longitude":-71.565756272,"ano":"2014"},{"id":"c01b4f1e-fd95-4e7e-add6-e153a416ae89","region":"REGION MAULE","nombre":"RETEN COPIHUE","tipo_unidad":"RETEN","latitude":-36.089671,"longitude":-71.798631,"ano":"2014"},{"id":"cf86a5dd-14ff-4deb-8527-ba9cf22bda77","region":"REGION MAULE","nombre":"RETEN CORINTO","tipo_unidad":"RETEN","latitude":-35.443093773,"longitude":-71.869378004,"ano":"2014"},{"id":"0677bd39-7573-4ba5-a469-3e66bf6a3187","region":"REGION MAULE","nombre":"RETEN CORONEL DE MAULE","tipo_unidad":"RETEN","latitude":-36.052308664,"longitude":-72.455883064,"ano":"2014"},{"id":"36c1f83d-63c0-47e0-bd55-63628c3f73e7","region":"REGION MAULE","nombre":"RETEN CURANIPE","tipo_unidad":"RETEN","latitude":-35.844573474,"longitude":-72.633838669,"ano":"2014"},{"id":"416530ac-b876-4508-8eea-5ef401ddae4b","region":"REGION MAULE","nombre":"RETEN DIGUA","tipo_unidad":"RETEN","latitude":-36.235789988,"longitude":-71.546418123,"ano":"2014"},{"id":"d9f7210a-1a4e-434e-8b43-3e515d689ea3","region":"REGION MAULE","nombre":"RETEN EL MELADO (F)","tipo_unidad":"RETEN","latitude":-35.856791,"longitude":-71.054268,"ano":"2014"},{"id":"459e23f9-6b20-40d2-950d-f85bdb90a428","region":"REGION MAULE","nombre":"RETEN EL PORVENIR","tipo_unidad":"RETEN","latitude":-35.161634,"longitude":-71.287211965,"ano":"2014"},{"id":"5f947ba0-e1d9-4e74-95ff-9db88f0d12e1","region":"REGION MAULE","nombre":"RETEN EL RADAL (F)","tipo_unidad":"RETEN","latitude":-35.417953798,"longitude":-71.049271461,"ano":"2014"},{"id":"e02fb11c-7783-4369-9095-a99b50af80cd","region":"REGION MAULE","nombre":"RETEN EL SAUCE","tipo_unidad":"RETEN","latitude":-35.479070311,"longitude":-71.552424154,"ano":"2014"},{"id":"fa3dd2a9-fa74-4c12-bca7-c04a35dc4164","region":"REGION MAULE","nombre":"RETEN EMBALSE ANCOA","tipo_unidad":"RETEN","latitude":-35.907192,"longitude":-71.290231,"ano":"2014"},{"id":"0dffe773-bbf0-42b2-9ffb-e8be32d63254","region":"REGION MAULE","nombre":"RETEN EMPEDRADO","tipo_unidad":"RETEN","latitude":-35.590851832,"longitude":-72.281092063,"ano":"2014"},{"id":"c6b86831-f70d-460b-b87e-36ad5bc4421e","region":"REGION MAULE","nombre":"RETEN ESTACION","tipo_unidad":"RETEN","latitude":-35.9840222792,"longitude":-72.3107761746,"ano":"2014"},{"id":"a4e135b6-80e7-442a-aceb-594fd947fb26","region":"REGION MAULE","nombre":"RETEN ESTACION VILLA ALEGRE","tipo_unidad":"RETEN","latitude":-35.694374843,"longitude":-71.677049749,"ano":"2014"},{"id":"ecbbb431-f4e6-4416-a317-eec77a0fdc59","region":"REGION MAULE","nombre":"RETEN GUALLECO","tipo_unidad":"RETEN","latitude":-35.247083805,"longitude":-71.982227665,"ano":"2014"},{"id":"cfc72e5b-84da-44d9-9115-dab8e1d3d040","region":"REGION MAULE","nombre":"RETEN HUAQUEN","tipo_unidad":"RETEN","latitude":-35.117627068,"longitude":-71.690345263,"ano":"2014"},{"id":"f6e487e8-ba2b-4129-a115-e57a9ce0fa16","region":"REGION MAULE","nombre":"RETEN HUERTA DE MAULE","tipo_unidad":"RETEN","latitude":-35.661652976,"longitude":-71.944619021,"ano":"2014"},{"id":"ff95db9e-04a1-469d-b4ac-6bcdf7d602d3","region":"REGION MAULE","nombre":"RETEN ILOCA","tipo_unidad":"RETEN","latitude":-34.936652111,"longitude":-72.178876742,"ano":"2014"},{"id":"9e81c7a4-dec3-4f5e-93bd-4df149ffef70","region":"REGION MAULE","nombre":"RETEN ITAHUE","tipo_unidad":"RETEN","latitude":-35.138533,"longitude":-71.36349,"ano":"2014"},{"id":"a09a3c4d-5aa6-470f-bb5c-0c182319f137","region":"REGION MAULE","nombre":"RETEN LA HUERTA","tipo_unidad":"RETEN","latitude":-35.090337989,"longitude":-71.657372897,"ano":"2014"},{"id":"824b84db-91f1-4ddd-b14c-e9dbf961c7dd","region":"REGION MAULE","nombre":"RETEN LA MINA (F)","tipo_unidad":"RETEN","latitude":-35.824750999,"longitude":-70.794375695,"ano":"2014"},{"id":"04f4fbe6-3360-452e-b81b-1d5869193f0c","region":"REGION MAULE","nombre":"RETEN LA PUERTA","tipo_unidad":"RETEN","latitude":-34.911824,"longitude":-71.041581,"ano":"2014"},{"id":"13be1284-35f9-49d4-b63e-bef40e31a376","region":"REGION MAULE","nombre":"RETEN LAS LOMAS","tipo_unidad":"RETEN","latitude":-35.483762687,"longitude":-71.222944368,"ano":"2014"},{"id":"817f4f0d-4d90-4e48-8c6c-b5b686253315","region":"REGION MAULE","nombre":"RETEN LLICO","tipo_unidad":"RETEN","latitude":-34.7621608126,"longitude":-72.0759692964,"ano":"2014"},{"id":"4f8dec09-f9e6-4f9d-9b1a-ddec1232b850","region":"REGION MAULE","nombre":"RETEN LONTUE","tipo_unidad":"RETEN","latitude":-35.0542383645,"longitude":-71.2762346287,"ano":"2014"},{"id":"19791c4d-b9ba-4565-a156-87e9d0a9c682","region":"REGION MAULE","nombre":"RETEN LOS NICHES","tipo_unidad":"RETEN","latitude":-35.077554,"longitude":-71.148075,"ano":"2014"},{"id":"84f7ad69-0bc7-4bf1-8189-f66a33e917e4","region":"REGION MAULE","nombre":"RETEN LOS QUENES (F)","tipo_unidad":"RETEN","latitude":-34.999916,"longitude":-70.8115,"ano":"2014"},{"id":"f60bb10d-a0b2-4fe0-b71e-7e1744e523fa","region":"REGION MAULE","nombre":"RETEN MARIPOSA","tipo_unidad":"RETEN","latitude":-35.529931,"longitude":-71.421453,"ano":"2014"},{"id":"33f18e8e-ce44-4e83-a3f2-a47a0cfc392d","region":"REGION MAULE","nombre":"RETEN MELOZAL","tipo_unidad":"RETEN","latitude":-35.735350231,"longitude":-71.799782054,"ano":"2014"},{"id":"3f7ba87e-3284-46c7-a096-d404a7f17187","region":"REGION MAULE","nombre":"RETEN MORZA","tipo_unidad":"RETEN","latitude":-34.822529794,"longitude":-71.020113877,"ano":"2014"},{"id":"00286ff1-0708-4394-8136-88f28de53e9a","region":"REGION MAULE","nombre":"RETEN NIRIVILO","tipo_unidad":"RETEN","latitude":-35.543339545,"longitude":-72.094480004,"ano":"2014"},{"id":"f32067e3-72d7-49d5-bc6d-f77284c82759","region":"REGION MAULE","nombre":"RETEN PALMILLA","tipo_unidad":"RETEN","latitude":-35.809498,"longitude":-71.737851,"ano":"2014"},{"id":"4ea5456d-9c53-4b03-a271-78f031519e9a","region":"REGION MAULE","nombre":"RETEN PASO NEVADO","tipo_unidad":"RETEN","latitude":-35.637027778,"longitude":-71.264111111,"ano":"2014"},{"id":"5a0336ef-d065-4c2d-8b0d-162cc01756fb","region":"REGION MAULE","nombre":"RETEN PELLUHUE","tipo_unidad":"RETEN","latitude":-35.8134745307,"longitude":-72.5688077958,"ano":"2014"},{"id":"80962432-a5dc-4e76-87f3-9b4c0ad5cdfd","region":"REGION MAULE","nombre":"RETEN POCILLAS","tipo_unidad":"RETEN","latitude":-36.161280868,"longitude":-72.228932693,"ano":"2014"},{"id":"fb8c957f-ae0f-4e24-aaed-dee3ee437912","region":"REGION MAULE","nombre":"RETEN PUTAGAN","tipo_unidad":"RETEN","latitude":-35.766001928,"longitude":-71.66582845,"ano":"2014"},{"id":"c4bdc897-5b99-452f-bdf2-d20eaab09f2c","region":"REGION MAULE","nombre":"RETEN PUTU","tipo_unidad":"RETEN","latitude":-35.213499057,"longitude":-72.284432727,"ano":"2014"},{"id":"7c1760fb-a3ad-47f7-a413-40f06f1c5d9e","region":"REGION MAULE","nombre":"RETEN QUELLA","tipo_unidad":"RETEN","latitude":-36.057265091,"longitude":-72.090947372,"ano":"2014"},{"id":"3c304193-a1e5-4224-9b83-412c5faf47fc","region":"REGION MAULE","nombre":"RETEN QUERI","tipo_unidad":"RETEN","latitude":-35.589978224,"longitude":-71.430692525,"ano":"2014"},{"id":"46671f74-c744-4f14-b372-2c340c2c8f2e","region":"REGION MAULE","nombre":"RETEN SAN JOSE DE DUAO","tipo_unidad":"RETEN","latitude":-35.55736895,"longitude":-71.58890502,"ano":"2014"},{"id":"851c6568-529a-4193-8219-652c32655486","region":"REGION MAULE","nombre":"TCIA. SAN RAFAEL","tipo_unidad":"TENENCIA","latitude":-35.308382046,"longitude":-71.521478016,"ano":"2014"},{"id":"9918052a-d83f-437e-a0c0-66aa37e7242c","region":"REGION MAULE","nombre":"RETEN SANTA ANA DE LOBOS","tipo_unidad":"RETEN","latitude":-35.590832654,"longitude":-71.898418757,"ano":"2014"},{"id":"222911c1-657e-441a-986f-ae58923fc8a3","region":"REGION MAULE","nombre":"RETEN SANTA ANA QUERI","tipo_unidad":"RETEN","latitude":-35.62165779,"longitude":-71.468022784,"ano":"2014"},{"id":"3980d0cd-ca97-49d4-8676-da537e595405","region":"REGION MAULE","nombre":"RETEN STA. ROSA HUALEMU","tipo_unidad":"RETEN","latitude":-35.0415564,"longitude":-71.30761672,"ano":"2014"},{"id":"38e1ee83-4a39-4031-9006-2f16bd329d86","region":"REGION MAULE","nombre":"TCIA. SARMIENTO","tipo_unidad":"TENENCIA","latitude":-34.934984225,"longitude":-71.201174179,"ano":"2014"},{"id":"fbcb2ee9-ecd6-43a4-94ac-805c772e6486","region":"REGION MAULE","nombre":"RETEN SAUZAL","tipo_unidad":"RETEN","latitude":-35.721061967,"longitude":-72.126343204,"ano":"2014"},{"id":"dee712b3-a5fa-434d-8607-9a4428a6db4a","region":"REGION MAULE","nombre":"RETEN SEMILLEROS","tipo_unidad":"RETEN","latitude":-35.67545,"longitude":-71.469004,"ano":"2014"},{"id":"75a94661-3b8b-4b64-981b-749aca692bfe","region":"REGION MAULE","nombre":"TCIA. TUTUQUEN","tipo_unidad":"TENENCIA","latitude":-34.975672,"longitude":-71.262746,"ano":"2014"},{"id":"e5b7d8be-aea4-487c-969e-244dab2a7bbe","region":"REGION MAULE","nombre":"RETEN VARA GRUESA","tipo_unidad":"RETEN","latitude":-35.831117411,"longitude":-71.521144912,"ano":"2014"},{"id":"15c9728c-923c-473a-92ab-62c28d8f82f7","region":"REGION MAULE","nombre":"RETEN VICHUQUEN","tipo_unidad":"RETEN","latitude":-34.878624297,"longitude":-71.994135627,"ano":"2014"},{"id":"296094fa-246c-45c4-bfaf-d7c3aee8ce1d","region":"REGION MAULE","nombre":"RETEN VILLA PRAT","tipo_unidad":"RETEN","latitude":-35.097605,"longitude":-71.616243,"ano":"2014"},{"id":"fb8596c2-791f-409e-b01a-a16a2a182421","region":"REGION MAULE","nombre":"RETEN VILLA SANTA OLGA","tipo_unidad":"RETEN","latitude":-35.450833766,"longitude":-72.278817693,"ano":"2014"},{"id":"ffe6f8d9-a55a-4cbb-9520-e2cc868fbf25","region":"REGION MAULE","nombre":"RETEN VILLASECA","tipo_unidad":"RETEN","latitude":-35.864575812,"longitude":-71.842125858,"ano":"2014"},{"id":"e989d7da-c7c2-417b-95eb-68c1db2b9886","region":"REGION MAULE","nombre":"RETEN YERBAS BUENAS","tipo_unidad":"RETEN","latitude":-35.749193262,"longitude":-71.584906572,"ano":"2014"},{"id":"175bd6e9-a8e5-4eb6-91d9-893fa746d862","region":"REGION MAULE","nombre":"SCOM. SANTA FE","tipo_unidad":"SUBCOMISARIA","latitude":-34.965587,"longitude":-71.243655,"ano":"2014"},{"id":"5f437921-12e0-4d29-999b-b0f5b39ccd8e","region":"REGION MAULE","nombre":"SCOM. VILLA ALEGRE","tipo_unidad":"SUBCOMISARIA","latitude":-35.680678459,"longitude":-71.740424418,"ano":"2014"},{"id":"6ce1e997-73a1-4531-9e9a-0928761f6175","region":"REGION MAULE","nombre":"TCIA. ABATE MOLINA","tipo_unidad":"TENENCIA","latitude":-35.442778,"longitude":-71.659344,"ano":"2014"},{"id":"8d7947d2-7a5a-4f59-adcc-30e7c57e2afc","region":"REGION MAULE","nombre":"TCIA. AGUAS NEGRAS","tipo_unidad":"TENENCIA","latitude":-34.996818,"longitude":-71.24841,"ano":"2014"},{"id":"f8a64944-186c-4d69-b98d-e2d2431defa4","region":"REGION MAULE","nombre":"TCIA. CARLOS TRUPP","tipo_unidad":"TENENCIA","latitude":-35.440199,"longitude":-71.632403,"ano":"2014"},{"id":"0d079dd3-f5e3-455e-b04a-2ccc49bd397b","region":"REGION MAULE","nombre":"TCIA. CARRET. CURICO","tipo_unidad":"TENENCIA CARRETERAS","latitude":-34.939165804,"longitude":-71.176865916,"ano":"2014"},{"id":"364dd198-c176-4052-8738-eebb5ae1b768","region":"REGION MAULE","nombre":"TCIA. CARRET. LINARES","tipo_unidad":"TENENCIA CARRETERAS","latitude":-35.841194221,"longitude":-71.629689072,"ano":"2014"},{"id":"467a2d12-58a9-4956-af23-d64b8fac60da","region":"REGION MAULE","nombre":"TCIA. CARRET. TALCA","tipo_unidad":"TENENCIA CARRETERAS","latitude":-35.315803924,"longitude":-71.534699843,"ano":"2014"},{"id":"3e18b699-7c61-4362-b1f5-76311fc4c6e1","region":"REGION MAULE","nombre":"TCIA. COLBUN","tipo_unidad":"TENENCIA","latitude":-35.696526139,"longitude":-71.40626205,"ano":"2014"},{"id":"fbdd32af-7a4a-4469-96c2-cbf3ff0ab025","region":"REGION MAULE","nombre":"TCIA. CUREPTO","tipo_unidad":"TENENCIA","latitude":-35.091309572,"longitude":-72.020282181,"ano":"2014"},{"id":"62242c4a-6dce-4c30-91a9-4e7231a3d88a","region":"REGION MAULE","nombre":"TCIA. HUALANE","tipo_unidad":"TENENCIA","latitude":-34.973599788,"longitude":-71.805676276,"ano":"2014"},{"id":"a70784c4-a9f8-4db8-bb92-e2ba85c924f5","region":"REGION MAULE","nombre":"TCIA. LA FLORIDA","tipo_unidad":"TENENCIA","latitude":-35.433828,"longitude":-71.67979,"ano":"2014"},{"id":"7e9b18d4-16da-40d7-858d-bdf13569437e","region":"REGION MAULE","nombre":"SCOM. LONGAVI","tipo_unidad":"SUBCOMISARIA","latitude":-35.96805539,"longitude":-71.68278121,"ano":"2014"},{"id":"8b8c0fa6-fd9d-4056-9f06-1086c7432899","region":"REGION MAULE","nombre":"TCIA. MAULE","tipo_unidad":"TENENCIA","latitude":-35.524236218,"longitude":-71.691875673,"ano":"2014"},{"id":"f0487ba1-3021-4960-82dc-6e9cd6321bb6","region":"REGION MAULE","nombre":"SCOM. SUBOF. CRISTIAN MARTINEZ","tipo_unidad":"SUBCOMISARIA","latitude":-35.865719,"longitude":-71.593192,"ano":"2014"},{"id":"aab2f1c5-da5c-4e80-9c1c-71aff47d1b4c","region":"REGION MAULE","nombre":"TCIA. PELARCO","tipo_unidad":"TENENCIA","latitude":-35.383324349,"longitude":-71.446236842,"ano":"2014"},{"id":"187725a3-cbe9-418f-a9bb-e5e6369b569c","region":"REGION MAULE","nombre":"TCIA. PENCAHUE","tipo_unidad":"TENENCIA","latitude":-35.39828445,"longitude":-71.797870245,"ano":"2014"},{"id":"ac4e3273-034d-42c9-a5f0-4904c0c00fab","region":"REGION MAULE","nombre":"TCIA. POTRERO GRANDE (F)","tipo_unidad":"TENENCIA","latitude":-35.203782,"longitude":-71.075313,"ano":"2014"},{"id":"ad1cd2d1-3eb1-4d95-a315-df0844081b52","region":"REGION MAULE","nombre":"TCIA. RAUCO","tipo_unidad":"TENENCIA","latitude":-34.925169625,"longitude":-71.316639399,"ano":"2014"},{"id":"00dfd65f-489e-4c0b-a11e-094c2d2f8d92","region":"REGION MAULE","nombre":"TCIA. REINA LUISA","tipo_unidad":"TENENCIA","latitude":-36.150453,"longitude":-71.832466,"ano":"2014"},{"id":"4644227c-9545-4fb1-8293-cbee3c527a24","region":"REGION MAULE","nombre":"TCIA. RETIRO","tipo_unidad":"TENENCIA","latitude":-36.056145531,"longitude":-71.764231295,"ano":"2014"},{"id":"8f24cc26-6b7b-4601-b91c-ade9abdc1491","region":"REGION MAULE","nombre":"TCIA. RIO CLARO","tipo_unidad":"TENENCIA","latitude":-35.281692909,"longitude":-71.257774004,"ano":"2014"},{"id":"c1918f2b-d57f-451f-9f52-04afc86133dc","region":"REGION MAULE","nombre":"TCIA. ROMERAL","tipo_unidad":"TENENCIA","latitude":-34.961062,"longitude":-71.128997,"ano":"2014"},{"id":"2003f5f0-98fc-4d7e-93e9-8ce3aa7a5a40","region":"REGION MAULE","nombre":"TCIA. SDA. FAMILIA","tipo_unidad":"TENENCIA","latitude":-34.999355811,"longitude":-71.378726051,"ano":"2014"},{"id":"9840e624-03b5-4a17-b7e4-30e503f10e34","region":"REGION MAULE","nombre":"TCIA. TALCA OTE.","tipo_unidad":"TENENCIA","latitude":-35.4319651085,"longitude":-71.646038021,"ano":"2014"},{"id":"2da9edc6-1af8-4668-8941-95d39040812f","region":"REGION LIBERTADOR GENERAL BERNARDO O'HIGGINS","nombre":"1RA. COM. RANCAGUA","tipo_unidad":"COMISARIA","latitude":-34.166702,"longitude":-70.745532,"ano":"2014"},{"id":"988fa98e-9097-40c5-acb3-26aae71aefdf","region":"REGION LIBERTADOR GENERAL BERNARDO O'HIGGINS","nombre":"1RA. COM. SAN FERNANDO","tipo_unidad":"COMISARIA","latitude":-34.58649,"longitude":-70.98877,"ano":"2014"},{"id":"9e9db4bc-5d70-4741-be46-c5ca784fb9d6","region":"REGION LIBERTADOR GENERAL BERNARDO O'HIGGINS","nombre":"2DA. COM. GRANEROS","tipo_unidad":"COMISARIA","latitude":-34.0698226868,"longitude":-70.7236202272,"ano":"2014"},{"id":"0ac1d70f-fda4-4a6b-aa2a-2a24537d0a35","region":"REGION LIBERTADOR GENERAL BERNARDO O'HIGGINS","nombre":"2DA. COM. SANTA CRUZ","tipo_unidad":"COMISARIA","latitude":-34.6408230079,"longitude":-71.3650755649,"ano":"2014"},{"id":"02ba7de7-a01f-429e-8270-272cbafda692","region":"REGION LIBERTADOR GENERAL BERNARDO O'HIGGINS","nombre":"3RA. COM. PICHILEMU","tipo_unidad":"COMISARIA","latitude":-34.3885387741,"longitude":-72.0023418537,"ano":"2014"},{"id":"7d9398b7-3b00-439e-9377-3311f9bc7839","region":"REGION LIBERTADOR GENERAL BERNARDO O'HIGGINS","nombre":"3RA. COM. RANCAGUA OTE.","tipo_unidad":"COMISARIA","latitude":-34.1737076882,"longitude":-70.7111711488,"ano":"2014"},{"id":"83eb8f68-4506-4189-9fa0-6a08787d8beb","region":"REGION LIBERTADOR GENERAL BERNARDO O'HIGGINS","nombre":"4TA. COM. RENGO","tipo_unidad":"COMISARIA","latitude":-34.4087400924,"longitude":-70.8640329277,"ano":"2014"},{"id":"91873608-d09e-45e3-bddd-9f4b2a87a136","region":"REGION LIBERTADOR GENERAL BERNARDO O'HIGGINS","nombre":"5TA. COM. PEUMO","tipo_unidad":"COMISARIA","latitude":-34.39586122,"longitude":-71.168814029,"ano":"2014"},{"id":"4bad2acd-d50e-47a0-98ed-4628ac91785c","region":"REGION LIBERTADOR GENERAL BERNARDO O'HIGGINS","nombre":"6TA. COM. SAN VICENTE","tipo_unidad":"COMISARIA","latitude":-34.438597,"longitude":-71.08095,"ano":"2014"},{"id":"3a0e0719-22f6-4fe1-9f78-67542e56f95e","region":"REGION LIBERTADOR GENERAL BERNARDO O'HIGGINS","nombre":"AVANZADA LAS LENAS (T)  (F)","tipo_unidad":"AVANZADA","latitude":-34.415353342,"longitude":-70.206211899,"ano":"2014"},{"id":"a5089fe2-016a-4fc7-a0d0-6119faf0ec55","region":"REGION LIBERTADOR GENERAL BERNARDO O'HIGGINS","nombre":"RETEN AGUA BUENA","tipo_unidad":"RETEN","latitude":-34.650329091,"longitude":-70.852706031,"ano":"2014"},{"id":"26d0c125-5337-4e6e-aaa4-8d2987475fd4","region":"REGION LIBERTADOR GENERAL BERNARDO O'HIGGINS","nombre":"RETEN ALMAHUE VIEJO","tipo_unidad":"RETEN","latitude":-34.41265116,"longitude":-71.236691129,"ano":"2014"},{"id":"43b88e6f-eed7-49d7-8c11-57971e5eaa19","region":"REGION LIBERTADOR GENERAL BERNARDO O'HIGGINS","nombre":"RETEN ANGOSTURA","tipo_unidad":"RETEN","latitude":-34.542074044,"longitude":-70.96711973,"ano":"2014"},{"id":"0b8ac5e6-7161-43a5-9266-07836d7c5a12","region":"REGION LIBERTADOR GENERAL BERNARDO O'HIGGINS","nombre":"RETEN CTRAL RAPEL","tipo_unidad":"RETEN","latitude":-34.036258065,"longitude":-71.586685145,"ano":"2014"},{"id":"75a7c41e-9f10-46e9-a4e0-51ac1cd28daf","region":"REGION LIBERTADOR GENERAL BERNARDO O'HIGGINS","nombre":"TCIA. EL MANZANO","tipo_unidad":"TENENCIA","latitude":-34.18240897,"longitude":-71.401290621,"ano":"2014"},{"id":"69cb1210-c00e-4009-8aa9-61523630bf85","region":"REGION LIBERTADOR GENERAL BERNARDO O'HIGGINS","nombre":"RETEN GUACARHUE","tipo_unidad":"RETEN","latitude":-34.354500154,"longitude":-71.017098656,"ano":"2014"},{"id":"e342c569-707d-41d6-be65-6fd5f54a1cf9","region":"REGION LIBERTADOR GENERAL BERNARDO O'HIGGINS","nombre":"RETEN HUIQUE","tipo_unidad":"RETEN","latitude":-34.522687624,"longitude":-71.375852346,"ano":"2014"},{"id":"b45a8b52-6423-40e8-a8fa-d4057e8926e6","region":"REGION LIBERTADOR GENERAL BERNARDO O'HIGGINS","nombre":"RETEN IDAHUE","tipo_unidad":"RETEN","latitude":-34.318710958,"longitude":-71.136647705,"ano":"2014"},{"id":"62f6a7a7-767d-4977-9c87-d03c5eedd8d0","region":"REGION LIBERTADOR GENERAL BERNARDO O'HIGGINS","nombre":"RETEN LA  ESTRELLA","tipo_unidad":"RETEN","latitude":-34.205005324,"longitude":-71.654148269,"ano":"2014"},{"id":"1926e237-1099-4c54-947e-fbc8071d71d8","region":"REGION LIBERTADOR GENERAL BERNARDO O'HIGGINS","nombre":"RETEN LLALLAUQUEN","tipo_unidad":"RETEN","latitude":-34.219655265,"longitude":-71.440788154,"ano":"2014"},{"id":"b749e747-102a-4c15-821d-d334545a6428","region":"REGION LIBERTADOR GENERAL BERNARDO O'HIGGINS","nombre":"RETEN LO MIRANDA","tipo_unidad":"RETEN","latitude":-34.190003888,"longitude":-70.89097204,"ano":"2014"},{"id":"1814afc4-fe31-4985-8598-c2cf086db6b9","region":"REGION LIBERTADOR GENERAL BERNARDO O'HIGGINS","nombre":"RETEN LOLOL","tipo_unidad":"RETEN","latitude":-34.728090233,"longitude":-71.647503718,"ano":"2014"},{"id":"8995cfe9-f712-4aea-8775-48727f9bf455","region":"REGION LIBERTADOR GENERAL BERNARDO O'HIGGINS","nombre":"RETEN LOS LIRIOS","tipo_unidad":"RETEN","latitude":-34.223176928,"longitude":-70.785155332,"ano":"2014"},{"id":"dfcd5541-5d05-47e9-b83a-c15ed13f9be2","region":"REGION LIBERTADOR GENERAL BERNARDO O'HIGGINS","nombre":"RETEN MALLOA","tipo_unidad":"RETEN","latitude":-34.445213027,"longitude":-70.945230302,"ano":"2014"},{"id":"a072c64e-7b34-4a2a-b035-452b2104b443","region":"REGION LIBERTADOR GENERAL BERNARDO O'HIGGINS","nombre":"RETEN MILLAHUE","tipo_unidad":"RETEN","latitude":-34.307871076,"longitude":-71.024398098,"ano":"2014"},{"id":"d6256ea7-784a-471d-8947-221dae24e24d","region":"REGION LIBERTADOR GENERAL BERNARDO O'HIGGINS","nombre":"TCIA. OLIVAR","tipo_unidad":"TENENCIA","latitude":-34.20978892,"longitude":-70.81086828,"ano":"2014"},{"id":"4445e94d-d496-4a5e-8329-d6676344ae69","region":"REGION LIBERTADOR GENERAL BERNARDO O'HIGGINS","nombre":"RETEN PANGAL (F)","tipo_unidad":"RETEN","latitude":-34.238913537,"longitude":-70.444241844,"ano":"2014"},{"id":"942784d7-7355-4afc-be29-b9dd1ffbd375","region":"REGION LIBERTADOR GENERAL BERNARDO O'HIGGINS","nombre":"RETEN PAREDONES","tipo_unidad":"RETEN","latitude":-34.648608,"longitude":-71.899438,"ano":"2014"},{"id":"ebcc960c-ee48-4537-9148-fc39685f81fd","region":"REGION LIBERTADOR GENERAL BERNARDO O'HIGGINS","nombre":"RETEN SN. PEDRO  DE ALCANTARA","tipo_unidad":"RETEN","latitude":-34.769572562,"longitude":-71.837177292,"ano":"2014"},{"id":"44dc80c9-06b8-489b-aa8a-1de3fff01345","region":"REGION LIBERTADOR GENERAL BERNARDO O'HIGGINS","nombre":"RETEN PLACILLA COLCHAGUA","tipo_unidad":"RETEN","latitude":-34.635905597,"longitude":-71.119819451,"ano":"2014"},{"id":"73b740fb-34ba-48a3-8a81-96c9a52317cd","region":"REGION LIBERTADOR GENERAL BERNARDO O'HIGGINS","nombre":"RETEN POBLACION","tipo_unidad":"RETEN","latitude":-34.452371578,"longitude":-71.548591086,"ano":"2014"},{"id":"c275544d-1dc3-431e-b754-a2d03f9be943","region":"REGION LIBERTADOR GENERAL BERNARDO O'HIGGINS","nombre":"RETEN POPETA","tipo_unidad":"RETEN","latitude":-34.441819632,"longitude":-70.78156601,"ano":"2014"},{"id":"890a4ab8-b150-4a97-803f-38fbd9586dbd","region":"REGION LIBERTADOR GENERAL BERNARDO O'HIGGINS","nombre":"RETEN PUENTE BADEN","tipo_unidad":"RETEN","latitude":-34.477486168,"longitude":-70.9799503,"ano":"2014"},{"id":"17915638-fa1b-411e-ba96-50b8a05da6f0","region":"REGION LIBERTADOR GENERAL BERNARDO O'HIGGINS","nombre":"RETEN PUENTE NEGRO (F)","tipo_unidad":"RETEN","latitude":-34.684618041,"longitude":-70.874301764,"ano":"2014"},{"id":"74e36845-ad0c-4f00-82cc-a097b090f6f8","region":"REGION LIBERTADOR GENERAL BERNARDO O'HIGGINS","nombre":"RETEN PUMANQUE","tipo_unidad":"RETEN","latitude":-34.599462608,"longitude":-71.652970631,"ano":"2014"},{"id":"f2dfaf1d-1c64-4359-8fcf-b04aa800f8c7","region":"REGION LIBERTADOR GENERAL BERNARDO O'HIGGINS","nombre":"RETEN RAPEL DE NAVIDAD","tipo_unidad":"RETEN","latitude":-33.941382445,"longitude":-71.736390685,"ano":"2014"},{"id":"b06f57e5-6284-4b7e-bdc1-ed0d7910e70c","region":"REGION LIBERTADOR GENERAL BERNARDO O'HIGGINS","nombre":"RETEN ROMA","tipo_unidad":"RETEN","latitude":-34.581855267,"longitude":-70.91044719,"ano":"2014"},{"id":"4c180c31-1619-4673-95e9-b3ffc2cde816","region":"REGION LIBERTADOR GENERAL BERNARDO O'HIGGINS","nombre":"RETEN ZUNIGA","tipo_unidad":"RETEN","latitude":-34.362848617,"longitude":-71.097914139,"ano":"2014"},{"id":"907c556c-2180-4c82-9c9a-1adb70658f2c","region":"REGION LIBERTADOR GENERAL BERNARDO O'HIGGINS","nombre":"TCIA. CACHAPOAL (M.C.)","tipo_unidad":"TENENCIA","latitude":-34.199666335,"longitude":-70.759144416,"ano":"2014"},{"id":"7a4e5006-399f-40e0-949d-6b09d4affeed","region":"REGION LIBERTADOR GENERAL BERNARDO O'HIGGINS","nombre":"SCOM. CHIMBARONGO","tipo_unidad":"SUBCOMISARIA","latitude":-34.70544532,"longitude":-71.04080045,"ano":"2014"},{"id":"ece770cb-aac2-4542-8614-8c83f4a8e45f","region":"REGION LIBERTADOR GENERAL BERNARDO O'HIGGINS","nombre":"SCOM. DONIHUE","tipo_unidad":"SUBCOMISARIA","latitude":-34.221891279,"longitude":-70.971949713,"ano":"2014"},{"id":"30bae051-df1f-43f5-b9ab-ecd8d8bc8c05","region":"REGION LIBERTADOR GENERAL BERNARDO O'HIGGINS","nombre":"SCOM. SAN FCO. DE MOSTAZAL","tipo_unidad":"SUBCOMISARIA","latitude":-33.983786519,"longitude":-70.707781201,"ano":"2014"},{"id":"10d87ed6-45a1-4d5d-86f9-8260c4f649c9","region":"REGION LIBERTADOR GENERAL BERNARDO O'HIGGINS","nombre":"SCOM. LAS CABRAS","tipo_unidad":"SUBCOMISARIA","latitude":-34.29369658,"longitude":-71.31208727,"ano":"2014"},{"id":"65f6d2af-519b-4c87-87c9-ce8d84f5a391","region":"REGION LIBERTADOR GENERAL BERNARDO O'HIGGINS","nombre":"SCOM. MACHALI","tipo_unidad":"SUBCOMISARIA","latitude":-34.1778296162,"longitude":-70.6514057702,"ano":"2014"},{"id":"57d66136-b0c5-4f67-a91d-8c16f15837d1","region":"REGION LIBERTADOR GENERAL BERNARDO O'HIGGINS","nombre":"SCOM. REQUINOA","tipo_unidad":"SUBCOMISARIA","latitude":-34.2868668227,"longitude":-70.8193969302,"ano":"2014"},{"id":"1db28d6a-cc2b-4e75-b973-e2edf880d582","region":"REGION LIBERTADOR GENERAL BERNARDO O'HIGGINS","nombre":"TCIA. CARRET. COLCHAGUA","tipo_unidad":"TENENCIA CARRETERAS","latitude":-34.631504827,"longitude":-70.990651142,"ano":"2014"},{"id":"bd166f9f-4435-4a10-b45e-bd58904f7bb2","region":"REGION LIBERTADOR GENERAL BERNARDO O'HIGGINS","nombre":"TCIA. CHEPICA","tipo_unidad":"TENENCIA","latitude":-34.728518535,"longitude":-71.272986616,"ano":"2014"},{"id":"7e88b8eb-1935-4c55-898d-b48c27177d3a","region":"REGION LIBERTADOR GENERAL BERNARDO O'HIGGINS","nombre":"TCIA. CODEGUA","tipo_unidad":"TENENCIA","latitude":-34.03913383,"longitude":-70.668213904,"ano":"2014"},{"id":"95ec3e6b-eb11-4459-bd9e-6539a27c99c0","region":"REGION LIBERTADOR GENERAL BERNARDO O'HIGGINS","nombre":"TCIA. COINCO","tipo_unidad":"TENENCIA","latitude":-34.267648357,"longitude":-70.949896706,"ano":"2014"},{"id":"c49b3eac-0cbd-4fb8-93d2-2d22315c6bb1","region":"REGION LIBERTADOR GENERAL BERNARDO O'HIGGINS","nombre":"TCIA. COLTAUCO","tipo_unidad":"TENENCIA","latitude":-34.287956536,"longitude":-71.084461165,"ano":"2014"},{"id":"411b065e-bcb9-43f1-aa57-10a3480ea2e3","region":"REGION LIBERTADOR GENERAL BERNARDO O'HIGGINS","nombre":"TCIA. COYA","tipo_unidad":"TENENCIA","latitude":-34.2081223365,"longitude":-70.5318650166,"ano":"2014"},{"id":"9a1002eb-643c-42b8-8a37-ba4a0cd75835","region":"REGION LIBERTADOR GENERAL BERNARDO O'HIGGINS","nombre":"SCOM. DIEGO PORTALES","tipo_unidad":"SUBCOMISARIA","latitude":-34.159362,"longitude":-70.714769,"ano":"2014"},{"id":"fb82a471-c691-4338-8414-5f43e187b299","region":"REGION LIBERTADOR GENERAL BERNARDO O'HIGGINS","nombre":"TCIA. LITUECHE","tipo_unidad":"TENENCIA","latitude":-34.116984736,"longitude":-71.726832946,"ano":"2014"},{"id":"44fa1e91-1c5c-427d-bc35-de677ef86a2e","region":"REGION LIBERTADOR GENERAL BERNARDO O'HIGGINS","nombre":"TCIA. MARCHIGUE","tipo_unidad":"TENENCIA","latitude":-34.398520861,"longitude":-71.618817499,"ano":"2014"},{"id":"b8722ff7-2432-4800-90a1-f5776a5ace8c","region":"REGION LIBERTADOR GENERAL BERNARDO O'HIGGINS","nombre":"TCIA. NANCAGUA","tipo_unidad":"TENENCIA","latitude":-34.649918113,"longitude":-71.206373172,"ano":"2014"},{"id":"9c09b697-e0f8-4c83-89ab-9aa9c4b72a83","region":"REGION LIBERTADOR GENERAL BERNARDO O'HIGGINS","nombre":"TCIA. NAVIDAD","tipo_unidad":"TENENCIA","latitude":-33.95452697,"longitude":-71.830196901,"ano":"2014"},{"id":"b67d91c0-0889-4969-bb38-736fc13c429d","region":"REGION LIBERTADOR GENERAL BERNARDO O'HIGGINS","nombre":"TCIA. PELEQUEN","tipo_unidad":"TENENCIA","latitude":-34.464168,"longitude":-70.896665,"ano":"2014"},{"id":"69584a46-d510-4b67-8cba-b258dd773e4a","region":"REGION LIBERTADOR GENERAL BERNARDO O'HIGGINS","nombre":"TCIA. PERALILLO","tipo_unidad":"TENENCIA","latitude":-34.47840364,"longitude":-71.476618084,"ano":"2014"},{"id":"c8d0041e-4b81-4d11-8e1c-914315271e0e","region":"REGION LIBERTADOR GENERAL BERNARDO O'HIGGINS","nombre":"TCIA. PICHIDEGUA","tipo_unidad":"TENENCIA","latitude":-34.361055592,"longitude":-71.278996711,"ano":"2014"},{"id":"7d413f2d-98fd-428f-81cc-28435986525e","region":"REGION LIBERTADOR GENERAL BERNARDO O'HIGGINS","nombre":"TCIA. QTA. TILCOCO","tipo_unidad":"TENENCIA","latitude":-34.354342649,"longitude":-70.964513899,"ano":"2014"},{"id":"2db8742d-2ecc-48f3-a1d2-993ef48a11dc","region":"REGION LIBERTADOR GENERAL BERNARDO O'HIGGINS","nombre":"TCIA. ROSARIO","tipo_unidad":"TENENCIA","latitude":-34.344811308,"longitude":-70.836739778,"ano":"2014"},{"id":"655ec721-bd54-4a9b-aa3d-63a00a93f90b","region":"REGION LIBERTADOR GENERAL BERNARDO O'HIGGINS","nombre":"RETEN LA PUNTA","tipo_unidad":"RETEN","latitude":-34.0043510108,"longitude":-70.6433691916,"ano":"2014"},{"id":"98b241cb-fb13-4714-bfb4-1794a105bb73","region":"REGION VALPARAISO","nombre":"TCIA. CARRET. SAN FELIPE","tipo_unidad":"TENENCIA CARRETERAS","latitude":-32.851729,"longitude":-70.940773,"ano":"2014"},{"id":"ff2d2967-8b66-4f1d-b028-5764df98d916","region":"REGION VALPARAISO","nombre":"1RA. COM. LA LIGUA","tipo_unidad":"COMISARIA","latitude":-32.450025,"longitude":-71.229401,"ano":"2014"},{"id":"57065b1a-91b0-456b-964b-29853e302a77","region":"REGION VALPARAISO","nombre":"1RA. COM. SAN ANTONIO","tipo_unidad":"COMISARIA","latitude":-33.597484,"longitude":-71.612277,"ano":"2014"},{"id":"d0adcd84-e8ff-4fe4-a173-9ec8bf258d76","region":"REGION VALPARAISO","nombre":"1RA. COM. SUR VALPO.","tipo_unidad":"COMISARIA","latitude":-33.029423,"longitude":-71.637685,"ano":"2014"},{"id":"5723d86d-8a43-4eb9-a7ee-ccb7a326a372","region":"REGION VALPARAISO","nombre":"1RA. COM. VINA DEL MAR","tipo_unidad":"COMISARIA","latitude":-33.019132,"longitude":-71.555752,"ano":"2014"},{"id":"6dcca8a8-5a10-4db4-8843-030069921be0","region":"REGION VALPARAISO","nombre":"2DA. COM. CARTAGENA","tipo_unidad":"COMISARIA","latitude":-33.547853,"longitude":-71.597927,"ano":"2014"},{"id":"c305a22c-654e-4139-b527-3539bde89188","region":"REGION VALPARAISO","nombre":"2DA. COM. CENTRAL VALPO.","tipo_unidad":"COMISARIA","latitude":-33.048309,"longitude":-71.61863,"ano":"2014"},{"id":"693867ef-e1fb-495a-b547-151651c0ab44","region":"REGION VALPARAISO","nombre":"2DA. COM. QUILPUE","tipo_unidad":"COMISARIA","latitude":-33.055328,"longitude":-71.438818,"ano":"2014"},{"id":"5cf25264-2539-4c80-8e54-ea947fd6a6f7","region":"REGION VALPARAISO","nombre":"2DA. COM. SAN FELIPE","tipo_unidad":"COMISARIA","latitude":-32.75518,"longitude":-70.726789,"ano":"2014"},{"id":"8a7dd845-da50-4eb3-b12c-dba159f6920b","region":"REGION VALPARAISO","nombre":"3RA. COM. ALGARROBO","tipo_unidad":"COMISARIA","latitude":-33.365514,"longitude":-71.66922,"ano":"2014"},{"id":"b98dfdda-2ff9-4ab1-a99d-1ba51dda422c","region":"REGION VALPARAISO","nombre":"3RA. COM. LIMACHE","tipo_unidad":"COMISARIA","latitude":-32.986172,"longitude":-71.278589,"ano":"2014"},{"id":"a0e80ec0-d434-47ca-9275-3118017882d2","region":"REGION VALPARAISO","nombre":"3RA. COM. LOS ANDES","tipo_unidad":"COMISARIA","latitude":-32.833722,"longitude":-70.603592,"ano":"2014"},{"id":"7ea72658-3e1e-4031-84b0-ce68cfadecfe","region":"REGION VALPARAISO","nombre":"3RA. COM. NORTE VALPO.","tipo_unidad":"COMISARIA","latitude":-33.04325,"longitude":-71.60129,"ano":"2014"},{"id":"6d979405-49d2-44f6-984d-d2bf36e4fc8e","region":"REGION VALPARAISO","nombre":"4TA. COM. QUILLOTA","tipo_unidad":"COMISARIA","latitude":-32.87839,"longitude":-71.248999,"ano":"2014"},{"id":"df44f5c9-6167-4e9e-a682-2d09139ebdc4","region":"REGION VALPARAISO","nombre":"5TA. COM. CASABLANCA","tipo_unidad":"COMISARIA","latitude":-33.320441,"longitude":-71.408462,"ano":"2014"},{"id":"f5ff5f47-83d6-42a6-ae0f-f5a266617a77","region":"REGION VALPARAISO","nombre":"5TA. COM. VINA DEL MAR","tipo_unidad":"COMISARIA","latitude":-33.023396,"longitude":-71.517393,"ano":"2014"},{"id":"9cb30e42-1aee-4f88-a183-0ae7315dc86f","region":"REGION VALPARAISO","nombre":"6TA. COM. ISLA PASCUA (F)","tipo_unidad":"COMISARIA","latitude":-27.160773692,"longitude":-109.436996142,"ano":"2014"},{"id":"88dd5220-5a06-454e-8308-4db27c9670c5","region":"REGION VALPARAISO","nombre":"6TA. COM. VILLA ALEMANA","tipo_unidad":"COMISARIA","latitude":-33.04333,"longitude":-71.37098,"ano":"2014"},{"id":"9eedb704-afc1-41db-a881-23dbec3153d5","region":"REGION VALPARAISO","nombre":"7MA. COM. LA CALERA","tipo_unidad":"COMISARIA","latitude":-32.784179557,"longitude":-71.190474468,"ano":"2014"},{"id":"86bed300-58cf-458e-8ebb-6a442b19c338","region":"REGION VALPARAISO","nombre":"8VA. COM. FLORIDA VALPO.","tipo_unidad":"COMISARIA","latitude":-33.053137,"longitude":-71.621817,"ano":"2014"},{"id":"c9b641f7-8252-4668-b0bc-c302bb7fffcb","region":"REGION VALPARAISO","nombre":"RETEN CABO 1 JUAN C. SILVA T.","tipo_unidad":"RETEN","latitude":-33.056547,"longitude":-71.559626,"ano":"2014"},{"id":"dfcf36c3-af88-4ca5-91e4-cbf83fea9046","region":"REGION VALPARAISO","nombre":"RETEN CACHAGUA","tipo_unidad":"RETEN","latitude":-32.577316048,"longitude":-71.453178044,"ano":"2014"},{"id":"66e8be54-2445-48e8-8514-596650606400","region":"REGION VALPARAISO","nombre":"RETEN CASAS DE ALICAHUE","tipo_unidad":"RETEN","latitude":-32.349045492,"longitude":-70.785853616,"ano":"2014"},{"id":"e77e640a-4af7-4238-aba2-25d3066a6fb3","region":"REGION VALPARAISO","nombre":"RETEN CATAPILCO","tipo_unidad":"RETEN","latitude":-32.567575729,"longitude":-71.275600048,"ano":"2014"},{"id":"6eec86a6-ec24-4bf5-af78-b66001965716","region":"REGION VALPARAISO","nombre":"RETEN CHINCOLCO","tipo_unidad":"RETEN","latitude":-32.223817886,"longitude":-70.842997054,"ano":"2014"},{"id":"fe47dc7e-873b-4834-81ac-91d98a27bcf3","region":"REGION VALPARAISO","nombre":"RETEN CUNCUMEN (M.C.)","tipo_unidad":"RETEN","latitude":-33.736026,"longitude":-71.421798,"ano":"2014"},{"id":"9f46aa3f-f2d0-4c7e-8511-f4d3eb123278","region":"REGION VALPARAISO","nombre":"RETEN CURIMON","tipo_unidad":"RETEN","latitude":-32.784125,"longitude":-70.688029,"ano":"2014"},{"id":"0aa55a69-ed45-47fa-b4b7-2c9cfde2643b","region":"REGION VALPARAISO","nombre":"RETEN EL MELON","tipo_unidad":"RETEN","latitude":-32.690728572,"longitude":-71.213284596,"ano":"2014"},{"id":"7471c95c-0bc7-4d5b-9e4e-a336e601d784","region":"REGION VALPARAISO","nombre":"TCIA.  EL TABO","tipo_unidad":"TENENCIA","latitude":-33.452984,"longitude":-71.665973,"ano":"2014"},{"id":"4a27f78f-b51d-4153-b8e9-c3b8b8715491","region":"REGION VALPARAISO","nombre":"RETEN GUZMANES","tipo_unidad":"RETEN","latitude":-32.582938,"longitude":-70.733708,"ano":"2014"},{"id":"0c042c3e-5cc3-45e5-b461-3fcb7ec675ed","region":"REGION VALPARAISO","nombre":"RETEN HIJUELAS","tipo_unidad":"RETEN","latitude":-32.802184,"longitude":-71.144269,"ano":"2014"},{"id":"37819024-2bfd-4dc2-9d29-af226615eb7b","region":"REGION VALPARAISO","nombre":"RETEN HORCON","tipo_unidad":"RETEN","latitude":-32.716362033,"longitude":-71.486182375,"ano":"2014"},{"id":"8c6329a3-ae25-4a05-ae85-2e967179371a","region":"REGION VALPARAISO","nombre":"TCIA. ISLA ROBINSON CRUSOE (F)","tipo_unidad":"TENENCIA","latitude":-33.639217906,"longitude":-78.830509956,"ano":"2014"},{"id":"99652a1f-7458-4334-8a2e-4933b790ef14","region":"REGION VALPARAISO","nombre":"RETEN LAGUNA VERDE","tipo_unidad":"RETEN","latitude":-33.104624726,"longitude":-71.66789606,"ano":"2014"},{"id":"96478826-c7a6-4cf6-9f0c-fffd16dff822","region":"REGION VALPARAISO","nombre":"SCOM. LAS CANAS","tipo_unidad":"SUBCOMISARIA","latitude":-33.059144,"longitude":-71.607121,"ano":"2014"},{"id":"a6827b51-be06-4364-b8ab-331f5e9fd95c","region":"REGION VALPARAISO","nombre":"TCIA. LAS CRUCES","tipo_unidad":"TENENCIA","latitude":-33.498679,"longitude":-71.615106,"ano":"2014"},{"id":"4ad16b45-f0bc-49d9-81f8-424bf38e0602","region":"REGION VALPARAISO","nombre":"RETEN LAS CRUZADAS","tipo_unidad":"RETEN","latitude":-32.937309434,"longitude":-71.275217449,"ano":"2014"},{"id":"5c3b0067-647c-4852-8327-87f509ea5734","region":"REGION VALPARAISO","nombre":"RETEN LAS VENTANAS","tipo_unidad":"RETEN","latitude":-32.743783,"longitude":-71.486152,"ano":"2014"},{"id":"3b3500af-f171-4d37-bbe6-84b40f33bb79","region":"REGION VALPARAISO","nombre":"RETEN LOS MOLLES","tipo_unidad":"RETEN","latitude":-32.231690569,"longitude":-71.506869268,"ano":"2014"},{"id":"7451b933-a1bb-43bc-90ee-3661ab7dcd7b","region":"REGION VALPARAISO","nombre":"RETEN LOS PATOS (F)","tipo_unidad":"RETEN","latitude":-32.500777899,"longitude":-70.58085128,"ano":"2014"},{"id":"0e1b2b2c-9782-49f3-8245-fe503933159c","region":"REGION VALPARAISO","nombre":"RETEN MAITENCILLO","tipo_unidad":"RETEN","latitude":-32.646046712,"longitude":-71.430298307,"ano":"2014"},{"id":"2a4914f2-24f2-42f6-9888-4310492feaf5","region":"REGION VALPARAISO","nombre":"RETEN PALACIO PRESIDENCIAL","tipo_unidad":"RETEN","latitude":-33.021165,"longitude":-71.564021,"ano":"2014"},{"id":"661fbac4-2916-48fd-aa41-994f81a89186","region":"REGION VALPARAISO","nombre":"RETEN PANQUEHUE","tipo_unidad":"RETEN","latitude":-32.769539029,"longitude":-70.833897272,"ano":"2014"},{"id":"81942448-b4ca-429d-b4f7-720e6ac7c46d","region":"REGION VALPARAISO","nombre":"RETEN PAPUDO","tipo_unidad":"RETEN","latitude":-32.50657,"longitude":-71.441423,"ano":"2014"},{"id":"3917fcff-b7a6-44f7-9b03-c064c3db02f5","region":"REGION VALPARAISO","nombre":"SCOM. PLACILLA PENUELAS","tipo_unidad":"SUBCOMISARIA","latitude":-33.11471,"longitude":-71.57663,"ano":"2014"},{"id":"b4fe732b-290a-4f47-8910-539dcfcde1db","region":"REGION VALPARAISO","nombre":"RETEN QUEBRADA HERRERA","tipo_unidad":"RETEN","latitude":-32.691722488,"longitude":-70.748426848,"ano":"2014"},{"id":"4becb093-7eb1-4c18-b867-82c8455cee33","region":"REGION VALPARAISO","nombre":"RETEN QUINTAY","tipo_unidad":"RETEN","latitude":-33.196397,"longitude":-71.696922,"ano":"2014"},{"id":"7104227b-55c8-4e8c-aa41-0d98cea10a13","region":"REGION VALPARAISO","nombre":"RETEN VALLE HERMOSO","tipo_unidad":"RETEN","latitude":-32.442938538,"longitude":-71.198271445,"ano":"2014"},{"id":"29b35a2d-d5de-49d6-9a11-51896cb6636c","region":"REGION VALPARAISO","nombre":"RETEN ZAPALLAR","tipo_unidad":"RETEN","latitude":-32.556273,"longitude":-71.454817,"ano":"2014"},{"id":"e925b9ec-b1ac-475a-befc-0f99c22f0b48","region":"REGION VALPARAISO","nombre":"SCOM. GOMEZ CARRENO","tipo_unidad":"SUBCOMISARIA","latitude":-32.999418,"longitude":-71.518915,"ano":"2014"},{"id":"251de9e5-f26a-4db4-a1d2-f5be6b8db554","region":"REGION VALPARAISO","nombre":"SCOM. LLAY LLAY","tipo_unidad":"SUBCOMISARIA","latitude":-32.842367,"longitude":-70.955269,"ano":"2014"},{"id":"013891fd-c703-40e2-bcf3-69eb9234ea5b","region":"REGION VALPARAISO","nombre":"SCOM. LLO LLEO","tipo_unidad":"SUBCOMISARIA","latitude":-33.610770342,"longitude":-71.618082542,"ano":"2014"},{"id":"705f9b29-5195-4cf9-9c26-aae523f2a7c8","region":"REGION VALPARAISO","nombre":"SCOM. LOS LIBERTADORES (F)","tipo_unidad":"SUBCOMISARIA","latitude":-32.846138174,"longitude":-70.118346675,"ano":"2014"},{"id":"3d562441-ed0a-4d89-9225-c01afc88544d","region":"REGION VALPARAISO","nombre":"SCOM. QUINTERO","tipo_unidad":"SUBCOMISARIA","latitude":-32.78749,"longitude":-71.528013,"ano":"2014"},{"id":"9837b116-0b85-4274-8279-6e07df6e447b","region":"REGION VALPARAISO","nombre":"SCOM. ROCAS SANTO DOMINGO","tipo_unidad":"SUBCOMISARIA","latitude":-33.633941512,"longitude":-71.610819889,"ano":"2014"},{"id":"bf42bb42-0c96-42fc-bb78-ca7b822c5309","region":"REGION VALPARAISO","nombre":"TCIA. CABILDO","tipo_unidad":"TENENCIA","latitude":-32.425597842,"longitude":-71.064842163,"ano":"2014"},{"id":"fe5cfcad-08c6-453c-a969-e8ee6b85c237","region":"REGION VALPARAISO","nombre":"TCIA. CALLE LARGA","tipo_unidad":"TENENCIA","latitude":-32.855668,"longitude":-70.626744,"ano":"2014"},{"id":"e2c74dbc-cebe-4854-b162-e5744bc1fc18","region":"REGION VALPARAISO","nombre":"TCIA. CARRET. HIJUELAS","tipo_unidad":"TENENCIA CARRETERAS","latitude":-32.801289,"longitude":-71.15497,"ano":"2014"},{"id":"f6bbac95-5038-4bfb-8269-27911cfa280e","region":"REGION VALPARAISO","nombre":"TCIA. CARRET. PETORCA","tipo_unidad":"TENENCIA CARRETERAS","latitude":-32.435723347,"longitude":-71.324542274,"ano":"2014"},{"id":"565dfdb6-45aa-4ea1-9c02-8b27571e53fa","region":"REGION VALPARAISO","nombre":"TCIA. CARRET. VALPARAISO","tipo_unidad":"TENENCIA CARRETERAS","latitude":-33.146746,"longitude":-71.560289,"ano":"2014"},{"id":"3bbe2d4b-1c86-4ad6-9e36-117fbbaca371","region":"REGION VALPARAISO","nombre":"TCIA. CATEMU","tipo_unidad":"TENENCIA","latitude":-32.778901,"longitude":-70.962051,"ano":"2014"},{"id":"dc248da5-5b10-46e3-9d61-9cdf1b31102b","region":"REGION VALPARAISO","nombre":"TCIA. CORDILLERA VALPO.","tipo_unidad":"TENENCIA","latitude":-33.043344,"longitude":-71.638021,"ano":"2014"},{"id":"b066fd8a-9f8c-45d8-af2f-98c4b50c02ea","region":"REGION VALPARAISO","nombre":"TCIA. EL BELLOTO","tipo_unidad":"TENENCIA","latitude":-33.046202,"longitude":-71.404821,"ano":"2014"},{"id":"4dbfb7a2-c878-4444-bb24-ea93229ecb6d","region":"REGION VALPARAISO","nombre":"SCOM. EL QUISCO","tipo_unidad":"SUBCOMISARIA","latitude":-33.397785228,"longitude":-71.694346093,"ano":"2014"},{"id":"e98e08f0-7d32-4275-9007-7ca188c4f0c7","region":"REGION VALPARAISO","nombre":"SCOM.  FORESTAL","tipo_unidad":"SUBCOMISARIA","latitude":-33.02951,"longitude":-71.543924,"ano":"2014"},{"id":"d76591a8-bd0a-4cd7-b59d-e0db4f1e76b1","region":"REGION VALPARAISO","nombre":"TCIA. LA CRUZ","tipo_unidad":"TENENCIA","latitude":-32.847344,"longitude":-71.232483,"ano":"2014"},{"id":"d6df19cb-9e8f-4271-9baa-4aa44b735b6b","region":"REGION VALPARAISO","nombre":"TCIA. NOGALES","tipo_unidad":"TENENCIA","latitude":-32.739228,"longitude":-71.199727,"ano":"2014"},{"id":"04caa649-c5bc-4b7b-9cd9-afc7d1d3f317","region":"REGION VALPARAISO","nombre":"TCIA. NVA. AURORA","tipo_unidad":"TENENCIA","latitude":-33.047411,"longitude":-71.564815,"ano":"2014"},{"id":"64a3cfd9-4d6c-4b58-a7ef-2dbcb2f4d3bb","region":"REGION VALPARAISO","nombre":"TCIA. OHIGGINS","tipo_unidad":"TENENCIA","latitude":-33.061447,"longitude":-71.586633,"ano":"2014"},{"id":"3ade206b-9026-49fe-9f3f-ecb55a23aa5e","region":"REGION VALPARAISO","nombre":"TCIA. OLMUE","tipo_unidad":"TENENCIA","latitude":-32.998334,"longitude":-71.187728,"ano":"2014"},{"id":"70e8af02-6aa7-49b7-b978-90633653e0b7","region":"REGION VALPARAISO","nombre":"TCIA. PETORCA","tipo_unidad":"TENENCIA","latitude":-32.250994753,"longitude":-70.930859811,"ano":"2014"},{"id":"afd37cd5-8179-4abf-b19b-e683fed9d8d8","region":"REGION VALPARAISO","nombre":"TCIA. PUCHUNCAVI","tipo_unidad":"TENENCIA","latitude":-32.718901,"longitude":-71.408449,"ano":"2014"},{"id":"7004816e-48d1-4aed-ac96-d31746f4141d","region":"REGION VALPARAISO","nombre":"TCIA. PUTAENDO","tipo_unidad":"TENENCIA","latitude":-32.623253,"longitude":-70.716396,"ano":"2014"},{"id":"43406889-4019-4603-ac42-1e63277bbfef","region":"REGION VALPARAISO","nombre":"TCIA. RECREO","tipo_unidad":"TENENCIA","latitude":-33.030878,"longitude":-71.579002,"ano":"2014"},{"id":"96568d78-2af9-4818-89c6-8ebcbc4b1bd1","region":"REGION VALPARAISO","nombre":"TCIA. RENACA","tipo_unidad":"TENENCIA","latitude":-32.969629,"longitude":-71.542498,"ano":"2014"},{"id":"4957206e-4df4-4136-9bee-d89e4e7656d4","region":"REGION VALPARAISO","nombre":"TCIA. RINCONADA","tipo_unidad":"TENENCIA","latitude":-32.832811,"longitude":-70.688712,"ano":"2014"},{"id":"fff90ec1-87fd-43a9-b865-5af3c4ddf133","region":"REGION VALPARAISO","nombre":"TCIA. RODELILLO","tipo_unidad":"TENENCIA","latitude":-33.05768,"longitude":-71.576817,"ano":"2014"},{"id":"492038c8-d5da-4770-b037-564012123b53","region":"REGION VALPARAISO","nombre":"TCIA. SANTA MARIA","tipo_unidad":"TENENCIA","latitude":-32.74869,"longitude":-70.65778,"ano":"2014"},{"id":"359f089f-dddd-4576-9ea4-6b9cbcc32dc0","region":"REGION VALPARAISO","nombre":"TCIA. REACA ALTO","tipo_unidad":"TENENCIA","latitude":-32.9979158967,"longitude":-71.4861017452,"ano":"2014"},{"id":"3eaeb6cc-6aaf-42ac-b65c-0b8c4c15d10c","region":"REGION COQUIMBO","nombre":"1RA. COM. LA SERENA","tipo_unidad":"COMISARIA","latitude":-29.899473,"longitude":-71.246279,"ano":"2014"},{"id":"c6f4950c-12b9-4764-ae1d-95b11af8de67","region":"REGION COQUIMBO","nombre":"2DA. COM. COQUIMBO","tipo_unidad":"COMISARIA","latitude":-29.9657660662,"longitude":-71.3451205046,"ano":"2014"},{"id":"5d44efb9-9f53-4817-b939-5cef11f64db4","region":"REGION COQUIMBO","nombre":"3RA. COM. OVALLE","tipo_unidad":"COMISARIA","latitude":-30.604204,"longitude":-71.19658,"ano":"2014"},{"id":"c94aa0de-d6cb-489a-b673-8e2ae2f7e4a4","region":"REGION COQUIMBO","nombre":"4TA. COM. ILLAPEL","tipo_unidad":"COMISARIA","latitude":-31.633153,"longitude":-71.16759,"ano":"2014"},{"id":"8df62a09-3a79-4bfb-a6c5-ebe3161a5055","region":"REGION COQUIMBO","nombre":"5TA. COM. VICUNA","tipo_unidad":"COMISARIA","latitude":-30.036727,"longitude":-70.710012,"ano":"2014"},{"id":"70b64394-a68a-4a58-a216-82b6a0f592cb","region":"REGION COQUIMBO","nombre":"6TA. COM. LAS COMPANIAS","tipo_unidad":"COMISARIA","latitude":-29.876795,"longitude":-71.238395,"ano":"2014"},{"id":"e4379f48-0400-4a7a-b2f1-db6d006d5e23","region":"REGION COQUIMBO","nombre":"RETEN C. DE TAMAYA","tipo_unidad":"RETEN","latitude":-30.5792026444,"longitude":-71.4087817865,"ano":"2014"},{"id":"d8e169fb-7c56-4c0f-b56e-bcd63093975f","region":"REGION COQUIMBO","nombre":"RETEN CHANARAL ALTO","tipo_unidad":"RETEN","latitude":-30.879547644,"longitude":-71.010556979,"ano":"2014"},{"id":"0d6abc4e-bbc9-419a-90d9-0ddaf56cf175","region":"REGION COQUIMBO","nombre":"RETEN COGOTI 18 (F)","tipo_unidad":"RETEN","latitude":-31.0910897808,"longitude":-70.9547777393,"ano":"2014"},{"id":"fe3d4051-79d0-48bc-94f3-d7dbd63e5590","region":"REGION COQUIMBO","nombre":"RETEN COIRON (F)","tipo_unidad":"RETEN","latitude":-31.9032400022,"longitude":-70.773939988,"ano":"2014"},{"id":"c901cd0c-64cb-49be-b3dd-d76cdd528f87","region":"REGION COQUIMBO","nombre":"RETEN EL MOLLE","tipo_unidad":"RETEN","latitude":-29.977833436,"longitude":-70.952299475,"ano":"2014"},{"id":"b446a1ba-250a-4a00-ab18-b049f0b7c65b","region":"REGION COQUIMBO","nombre":"RETEN EL PALQUI","tipo_unidad":"RETEN","latitude":-30.768478374,"longitude":-70.943372252,"ano":"2014"},{"id":"0bed058e-b2e3-4af3-ae8b-f9bdb65babe0","region":"REGION COQUIMBO","nombre":"RETEN GUANAQUEROS","tipo_unidad":"RETEN","latitude":-30.1964589486,"longitude":-71.4296879037,"ano":"2014"},{"id":"120e7565-7b14-4e17-8140-8fbbb3e5d525","region":"REGION COQUIMBO","nombre":"RETEN HURTADO (F)","tipo_unidad":"RETEN","latitude":-30.2777340103,"longitude":-70.6691364015,"ano":"2014"},{"id":"6bf7b2e8-0bd0-47ea-b8c1-fd881840a9f3","region":"REGION COQUIMBO","nombre":"RETEN LA CANELA","tipo_unidad":"RETEN","latitude":-31.397161,"longitude":-71.456497,"ano":"2014"},{"id":"c68ada67-7b9b-4757-b9fc-a50a548feaa5","region":"REGION COQUIMBO","nombre":"RETEN LA HIGUERA","tipo_unidad":"RETEN","latitude":-29.510620469,"longitude":-71.200340729,"ano":"2014"},{"id":"b43a8351-fd7b-4cd8-97ac-b86899198955","region":"REGION COQUIMBO","nombre":"TCIA. LAS ENCINAS","tipo_unidad":"TENENCIA","latitude":-29.9747,"longitude":-71.32826,"ano":"2014"},{"id":"994a3a7b-3af2-4215-a5c4-a3abc228a5c9","region":"REGION COQUIMBO","nombre":"RETEN LAS TORTOLAS (F)","tipo_unidad":"RETEN","latitude":-30.742776515,"longitude":-70.599795437,"ano":"2014"},{"id":"d0b41eb2-3265-4205-b7e7-8f5c13727769","region":"REGION COQUIMBO","nombre":"RETEN PEDREGAL (F)","tipo_unidad":"RETEN","latitude":-30.854402,"longitude":-70.709487,"ano":"2014"},{"id":"a119cde3-17ee-4608-879a-7e3f45ce6de6","region":"REGION COQUIMBO","nombre":"TCIA. PENUELAS","tipo_unidad":"TENENCIA","latitude":-29.949079,"longitude":-71.287462,"ano":"2014"},{"id":"25a80ede-b99b-4998-8913-1be33fd13853","region":"REGION COQUIMBO","nombre":"RETEN PICHASCA","tipo_unidad":"RETEN","latitude":-30.394828929,"longitude":-70.8712118434,"ano":"2014"},{"id":"5b2a5936-c419-4512-82df-7e3ac6d7a88b","region":"REGION COQUIMBO","nombre":"RETEN PICHIDANGUI","tipo_unidad":"RETEN","latitude":-32.141435532,"longitude":-71.52636079,"ano":"2014"},{"id":"fc416392-e949-40e5-bf3f-cecfc066baed","region":"REGION COQUIMBO","nombre":"RETEN PISCO ELQUI (F)","tipo_unidad":"RETEN","latitude":-30.123483129,"longitude":-70.494044787,"ano":"2014"},{"id":"fa58f856-1491-43d4-b3b4-2d8183f6a733","region":"REGION COQUIMBO","nombre":"RETEN TULAHUEN (F)","tipo_unidad":"RETEN","latitude":-30.964644528,"longitude":-70.769040738,"ano":"2014"},{"id":"c39b175b-83af-4d55-95b7-96e0479967cd","region":"REGION COQUIMBO","nombre":"SCOM. COMBARBALA","tipo_unidad":"SUBCOMISARIA","latitude":-31.1784435542,"longitude":-71.0020446266,"ano":"2014"},{"id":"542c2b47-544d-49f0-b646-65e717d16d12","region":"REGION COQUIMBO","nombre":"SCOM. LA FLORIDA","tipo_unidad":"SUBCOMISARIA","latitude":-29.91589,"longitude":-71.21828,"ano":"2014"},{"id":"b202deba-1ab4-48d8-8d84-22afbbebad6e","region":"REGION COQUIMBO","nombre":"SCOM. LOS VILOS","tipo_unidad":"SUBCOMISARIA","latitude":-31.9144,"longitude":-71.510336,"ano":"2014"},{"id":"78da3d78-c94a-4921-b667-6a22b796b21a","region":"REGION COQUIMBO","nombre":"SCOM. MONTE PATRIA","tipo_unidad":"SUBCOMISARIA","latitude":-30.696332,"longitude":-70.958681,"ano":"2014"},{"id":"232443e0-2a54-49a6-8de8-130e2c70f7aa","region":"REGION COQUIMBO","nombre":"SCOM. SALAMANCA","tipo_unidad":"SUBCOMISARIA","latitude":-31.779616,"longitude":-70.965167,"ano":"2014"},{"id":"76829fe5-f53b-487c-9efc-e4d05b0adcd0","region":"REGION COQUIMBO","nombre":"SCOM. TIERRAS BLANCAS","tipo_unidad":"SUBCOMISARIA","latitude":-29.961823,"longitude":-71.255911,"ano":"2014"},{"id":"f70ae54f-521e-4aef-9e1e-0f2ccea4d6da","region":"REGION COQUIMBO","nombre":"TCIA. ANDACOLLO","tipo_unidad":"TENENCIA","latitude":-30.2336825295,"longitude":-71.0819670672,"ano":"2014"},{"id":"b3c6d484-688d-4860-ac61-ec4c3791c6e2","region":"REGION COQUIMBO","nombre":"TCIA. CARRETERA CHOAPA (M.C.)","tipo_unidad":"TENENCIA CARRETERAS","latitude":-31.703711,"longitude":-71.522179,"ano":"2014"},{"id":"1c5c45ed-b482-4a17-9026-4e2d30ba8f45","region":"REGION COQUIMBO","nombre":"TCIA. CARRETERA LIMARI","tipo_unidad":"TENENCIA CARRETERAS","latitude":-30.579114,"longitude":-71.494549,"ano":"2014"},{"id":"3b65166f-13c4-43b2-abe6-a55ba042b72e","region":"REGION COQUIMBO","nombre":"TCIA. COQUIMBO ORIENTE","tipo_unidad":"TENENCIA","latitude":-29.9883,"longitude":-71.34126,"ano":"2014"},{"id":"c6608027-7c2c-4b5f-bc4a-c4e777162602","region":"REGION COQUIMBO","nombre":"TCIA. JUNTAS DEL TORO (F)","tipo_unidad":"TENENCIA","latitude":-29.9771517528,"longitude":-70.0945468117,"ano":"2014"},{"id":"f174a995-db2c-4c87-abdb-0ce48388f113","region":"REGION COQUIMBO","nombre":"TCIA. LA HERRADURA","tipo_unidad":"TENENCIA","latitude":-29.9865805198,"longitude":-71.3604861188,"ano":"2014"},{"id":"82287638-f8d1-42ed-ab74-acc372dfe6ae","region":"REGION COQUIMBO","nombre":"TCIA. PAIHUANO","tipo_unidad":"TENENCIA","latitude":-30.0293217698,"longitude":-70.5163130891,"ano":"2014"},{"id":"ec44c237-7fdf-4aa1-9971-f8d4c9888ca3","region":"REGION COQUIMBO","nombre":"TCIA. PUNITAQUI","tipo_unidad":"TENENCIA","latitude":-30.833185,"longitude":-71.257742,"ano":"2014"},{"id":"a1282348-f529-41c4-af66-5b521b024139","region":"REGION COQUIMBO","nombre":"TCIA. TONGOY","tipo_unidad":"TENENCIA","latitude":-30.2573281798,"longitude":-71.4921263596,"ano":"2014"},{"id":"118999ab-2483-4af8-8bbf-5d3d72cbea24","region":"REGION COQUIMBO","nombre":"RETEN CERRO DEL VIGIA","tipo_unidad":"RETEN","latitude":-29.9496089278,"longitude":-71.3461019031,"ano":"2014"},{"id":"6b4d4aad-9937-4487-8bcd-9917471bd2b5","region":"REGION ATACAMA","nombre":"1RA. COM. CHANARAL","tipo_unidad":"COMISARIA","latitude":-26.3473643333,"longitude":-70.6214120243,"ano":"2014"},{"id":"8780fbfa-588d-40d3-9415-8619975e0794","region":"REGION ATACAMA","nombre":"2DA. COM. COPIAPO","tipo_unidad":"COMISARIA","latitude":-27.36771,"longitude":-70.331457,"ano":"2014"},{"id":"9a26db07-8f59-4f6d-a670-caacc90e0bfe","region":"REGION ATACAMA","nombre":"3RA. COM. VALLENAR","tipo_unidad":"COMISARIA","latitude":-28.5780823508,"longitude":-70.7584384024,"ano":"2014"},{"id":"9f45ee8c-8163-4305-81d4-f07fd08d77c1","region":"REGION ATACAMA","nombre":"4TA. COM. EL SALVADOR","tipo_unidad":"COMISARIA","latitude":-26.248946468,"longitude":-69.625919053,"ano":"2014"},{"id":"4ac5dcd5-31ac-4803-b9f1-64405a533f64","region":"REGION ATACAMA","nombre":"RETEN CARAB. ALFREDO  ROZAS B.","tipo_unidad":"RETEN","latitude":-28.576522997,"longitude":-70.7500876156,"ano":"2014"},{"id":"1bb055aa-5f8e-4c07-bc35-595bd24dadcb","region":"REGION ATACAMA","nombre":"RETEN CONAY (F)","tipo_unidad":"RETEN","latitude":-28.973522099,"longitude":-70.153992647,"ano":"2014"},{"id":"6fd77739-72a1-48c2-8519-c3e16b422a90","region":"REGION ATACAMA","nombre":"RETEN DOMEYKO (M.C.)","tipo_unidad":"RETEN","latitude":-28.955199649,"longitude":-70.895621665,"ano":"2014"},{"id":"d325a096-bdbf-48c8-a08a-3f25020c615e","region":"REGION ATACAMA","nombre":"RETEN EL SALADO","tipo_unidad":"RETEN","latitude":-26.422001031,"longitude":-70.317106151,"ano":"2014"},{"id":"9b9812e7-0683-44eb-9817-2659ff3d0fd3","region":"REGION ATACAMA","nombre":"RETEN EL TRANSITO","tipo_unidad":"RETEN","latitude":-28.876756636,"longitude":-70.280069996,"ano":"2014"},{"id":"d219e8c4-4363-4a13-b495-6f7584bed9a8","region":"REGION ATACAMA","nombre":"RETEN INCA DE ORO","tipo_unidad":"RETEN","latitude":-26.75332269,"longitude":-69.905553865,"ano":"2014"},{"id":"dd33d9a5-a0de-4611-8f17-e31e4e55257c","region":"REGION ATACAMA","nombre":"RETEN PAIPOTE","tipo_unidad":"RETEN","latitude":-27.413483,"longitude":-70.271509,"ano":"2014"},{"id":"d34464ac-d9df-4622-8afe-ca6ef2eee45b","region":"REGION ATACAMA","nombre":"SCOM. PEDRO LEON GALLO","tipo_unidad":"SUBCOMISARIA","latitude":-27.368498,"longitude":-70.312203,"ano":"2014"},{"id":"ab8577d6-005b-49cb-89c0-10b6219da7d8","region":"REGION ATACAMA","nombre":"RETEN SACRAMENTO (F)","tipo_unidad":"RETEN","latitude":-27.830625157,"longitude":-70.10790219,"ano":"2014"},{"id":"83411962-9a9e-4479-a8e5-957b0183a444","region":"REGION ATACAMA","nombre":"RETEN SAN FELIX (F)","tipo_unidad":"RETEN","latitude":-28.934336904,"longitude":-70.46091786,"ano":"2014"},{"id":"820765e8-70df-4e1d-b641-6f421d799df2","region":"REGION ATACAMA","nombre":"SUBCOM. TIERRA AMARILLA","tipo_unidad":"SUBCOMISARIA","latitude":-27.4665942011,"longitude":-70.2654662513,"ano":"2014"},{"id":"ec7d45dc-f5c7-4643-8df8-d661f652a849","region":"REGION ATACAMA","nombre":"SCOM. CALDERA (M)","tipo_unidad":"SUBCOMISARIA","latitude":-27.0695855099,"longitude":-70.8205093288,"ano":"2014"},{"id":"88b5d06b-25fb-496b-a258-a94fa08dc2ed","region":"REGION ATACAMA","nombre":"SCOM. DIEGO DE ALMAGRO","tipo_unidad":"SUBCOMISARIA","latitude":-26.391768603,"longitude":-70.0469470386,"ano":"2014"},{"id":"2f0fcf85-f0b0-4ce9-af18-50a773aafb0d","region":"REGION ATACAMA","nombre":"SCOM. HUASCO (M)","tipo_unidad":"SUBCOMISARIA","latitude":-28.4625319406,"longitude":-71.2252400476,"ano":"2014"},{"id":"7b7376e0-dd38-4be3-b444-5bb2fd4e7f6b","region":"REGION ATACAMA","nombre":"TCIA. ALTO DEL CARMEN","tipo_unidad":"TENENCIA","latitude":-28.7545837089,"longitude":-70.4854964022,"ano":"2014"},{"id":"eecb3b3f-ab5a-486b-a34f-0937dff9b5a3","region":"REGION ATACAMA","nombre":"SUBCOM. IAT Y TCIA. CARRETERA ATACAMA NORTE","tipo_unidad":"TENENCIA CARRETERAS","latitude":-27.3492507791,"longitude":-70.6828725519,"ano":"2014"},{"id":"4a44ab84-2d73-468c-bc29-4e4030380cb2","region":"REGION ATACAMA","nombre":"TENENCIA CARRETERA ATACAMA SUR","tipo_unidad":"TENENCIA CARRETERAS","latitude":-28.5732984599,"longitude":-70.785297784,"ano":"2014"},{"id":"76063366-158f-41fe-9d61-6c1d55520c57","region":"REGION ATACAMA","nombre":"TCIA. FREIRINA","tipo_unidad":"TENENCIA","latitude":-28.5085912098,"longitude":-71.0787768148,"ano":"2014"},{"id":"520346df-f08b-473f-9310-004f64b06f0f","region":"REGION ANTOFAGASTA","nombre":"1RA. COM. CALAMA","tipo_unidad":"COMISARIA","latitude":-22.45636,"longitude":-68.92949,"ano":"2014"},{"id":"7d71dbbe-d003-4eb7-b088-fad14fe8b8e0","region":"REGION ANTOFAGASTA","nombre":"1RA. COM. TALTAL","tipo_unidad":"COMISARIA","latitude":-25.410553,"longitude":-70.484475,"ano":"2014"},{"id":"022f3419-65aa-43c2-8d6f-206e540cf259","region":"REGION ANTOFAGASTA","nombre":"2DA. COM. ANTOFAGASTA","tipo_unidad":"COMISARIA","latitude":-23.61599,"longitude":-70.383009,"ano":"2014"},{"id":"42b375ca-13d6-42b3-a729-8d65b2b10065","region":"REGION ANTOFAGASTA","nombre":"3RA. COM. ANTOFAGASTA","tipo_unidad":"COMISARIA","latitude":-23.64816,"longitude":-70.399198,"ano":"2014"},{"id":"01f581de-529a-4a17-b7e3-a6c6302bc2ca","region":"REGION ANTOFAGASTA","nombre":"4TA. COM. TOCOPILLA","tipo_unidad":"COMISARIA","latitude":-22.092970986,"longitude":-70.200410887,"ano":"2014"},{"id":"fafb6dc3-add5-4702-8346-9ce8fcaf9695","region":"REGION ANTOFAGASTA","nombre":"RETEN SOCAIRE (T. F.)","tipo_unidad":"RETEN","latitude":-23.825255338,"longitude":-67.441444314,"ano":"2014"},{"id":"6c047057-f999-4a32-a5ba-156d81ae25e6","region":"REGION ANTOFAGASTA","nombre":"RETEN ALEMANIA (M.C.)","tipo_unidad":"RETEN","latitude":-25.40759203,"longitude":-69.974452871,"ano":"2014"},{"id":"5fdae58f-240e-413c-ac39-ec96bad116f7","region":"REGION ANTOFAGASTA","nombre":"RETEN ASCOTAN (F)","tipo_unidad":"RETEN","latitude":-21.72512922,"longitude":-68.275443484,"ano":"2014"},{"id":"f2108fd2-9849-42bf-9bf2-1ec1a8c0ca33","region":"REGION ANTOFAGASTA","nombre":"RETEN INACALIRI (F)","tipo_unidad":"RETEN","latitude":-22.028065765,"longitude":-68.066668955,"ano":"2014"},{"id":"d41e0730-6fb4-4026-961f-e10f24162d8e","region":"REGION ANTOFAGASTA","nombre":"SCOM. PLAYA BLANCA","tipo_unidad":"SUBCOMISARIA","latitude":-23.681266,"longitude":-70.413623,"ano":"2014"},{"id":"769eaad2-231b-4111-b45c-37ecdda8a289","region":"REGION ANTOFAGASTA","nombre":"RETEN SIERRA GORDA","tipo_unidad":"RETEN","latitude":-22.891159225,"longitude":-69.320973717,"ano":"2014"},{"id":"2f993b04-a2d6-4104-8848-6de88f72dd80","region":"REGION ANTOFAGASTA","nombre":"RETEN SOCOMPA (F)","tipo_unidad":"RETEN","latitude":-24.45041002,"longitude":-68.290616669,"ano":"2014"},{"id":"290b1725-fa5f-4093-9229-98c024b9f7fb","region":"REGION ANTOFAGASTA","nombre":"RETEN TOCONAO (F)","tipo_unidad":"RETEN","latitude":-23.18602273,"longitude":-68.005555799,"ano":"2014"},{"id":"72977a47-28cb-4a99-9880-80b84f67d437","region":"REGION ANTOFAGASTA","nombre":"RETEN TOCONCE (F)","tipo_unidad":"RETEN","latitude":-22.264487197,"longitude":-68.166209401,"ano":"2014"},{"id":"aafd534c-00f8-488c-a255-4ab0f0824db4","region":"REGION ANTOFAGASTA","nombre":"RETEN TOCORPURI (F)","tipo_unidad":"RETEN","latitude":-22.497451,"longitude":-68.058373,"ano":"2014"},{"id":"41fa350e-191d-48dd-a1b2-6d1a5be3af17","region":"REGION ANTOFAGASTA","nombre":"SCOM. ANTOFAGASTA NORTE","tipo_unidad":"SUBCOMISARIA","latitude":-23.5818,"longitude":-70.38062,"ano":"2014"},{"id":"bb765730-7e53-4f76-914b-0dfbcaeabf0d","region":"REGION ANTOFAGASTA","nombre":"2DA. COM. SAN PEDRO ATACAMA (F)","tipo_unidad":"COMISARIA","latitude":-22.91061127,"longitude":-68.200505951,"ano":"2014"},{"id":"0d2005f5-aaf1-45c9-b8f9-2f5207bbb9b5","region":"REGION ANTOFAGASTA","nombre":"TCIA.  BAQUEDANO (M.C.)","tipo_unidad":"TENENCIA CARRETERAS","latitude":-23.331704208,"longitude":-69.839201091,"ano":"2014"},{"id":"4db42606-e42d-4ccf-b89e-3c350b9650d8","region":"REGION ANTOFAGASTA","nombre":"TCIA. MARIA ELENA (M.C)","tipo_unidad":"TENENCIA","latitude":-22.344437,"longitude":-69.65796,"ano":"2014"},{"id":"a6556a86-1f23-444c-aed9-1a00fbcebdb3","region":"REGION ANTOFAGASTA","nombre":"TCIA. MEJILLONES","tipo_unidad":"TENENCIA","latitude":-23.101212,"longitude":-70.445339,"ano":"2014"},{"id":"35c60c94-8de5-42b6-b92c-4a67175fb019","region":"REGION ANTOFAGASTA","nombre":"TCIA. OLLAGUE (F)","tipo_unidad":"TENENCIA","latitude":-21.223569345,"longitude":-68.251852989,"ano":"2014"},{"id":"b8bb3a5b-4412-435c-b72f-6ffa485013ea","region":"REGION TARAPACA","nombre":"1RA. COM. IQUIQUE","tipo_unidad":"COMISARIA","latitude":-20.218642,"longitude":-70.150777,"ano":"2014"},{"id":"b2eddfb4-2600-4701-a6ff-53e3fe44f078","region":"REGION TARAPACA","nombre":"3RA. COM. ALTO HOSPICIO","tipo_unidad":"COMISARIA","latitude":-20.273272,"longitude":-70.093505,"ano":"2014"},{"id":"1ac85c5d-fa13-4c52-ad42-44cf126ca009","region":"REGION TARAPACA","nombre":"RETEN CAMINA","tipo_unidad":"RETEN","latitude":-19.312741803,"longitude":-69.4272099,"ano":"2014"},{"id":"0ed1795c-e866-4843-bfd2-7bde4e14ef85","region":"REGION TARAPACA","nombre":"RETEN CANCOSA (F)","tipo_unidad":"RETEN","latitude":-19.854715,"longitude":-68.601562,"ano":"2014"},{"id":"7f8f4b6e-716b-4a85-9c47-b936a30859e2","region":"REGION TARAPACA","nombre":"RETEN LA TIRANA","tipo_unidad":"RETEN","latitude":-20.3349590606,"longitude":-69.6591239241,"ano":"2014"},{"id":"99c2f577-e40b-4432-a515-34e94cabe965","region":"REGION TARAPACA","nombre":"RETEN MAMINA","tipo_unidad":"RETEN","latitude":-20.07074153,"longitude":-69.217313811,"ano":"2014"},{"id":"cf8d9d78-0408-48ba-b0b7-09566e35686f","region":"REGION TARAPACA","nombre":"RETEN PISAGUA","tipo_unidad":"RETEN","latitude":-19.5959867317,"longitude":-70.2109215578,"ano":"2014"},{"id":"d8d7082e-02f7-419f-afb3-e2866fe64fa8","region":"REGION TARAPACA","nombre":"RETEN QUILLAGUA (M.C.)","tipo_unidad":"RETEN","latitude":-21.627909,"longitude":-69.551246,"ano":"2014"},{"id":"e497479b-3ca3-4c36-b457-8a8350980d35","region":"REGION TARAPACA","nombre":"RETEN RIO LOA (M.C.)","tipo_unidad":"RETEN","latitude":-21.424503,"longitude":-70.056736,"ano":"2014"},{"id":"76f35877-8a73-4917-aec9-bfe87288bba8","region":"REGION TARAPACA","nombre":"SCOM. COLCHANE (F)","tipo_unidad":"SUBCOMISARIA","latitude":-19.276382883,"longitude":-68.637933342,"ano":"2014"},{"id":"2576bd46-c7ed-4dbf-8f74-9268f8f959a9","region":"REGION TARAPACA","nombre":"TCIA HUARA (M.C.)","tipo_unidad":"TENENCIA CARRETERAS","latitude":-19.9956618,"longitude":-69.767061167,"ano":"2014"},{"id":"66a4741c-9a2a-440c-a595-e2e006ee64d1","region":"REGION TARAPACA","nombre":"TCIA PICA (F)","tipo_unidad":"TENENCIA","latitude":-20.4967316687,"longitude":-69.337384595,"ano":"2014"},{"id":"c151eb8b-1f2c-499b-b167-e43778ee7867","region":"REGION TARAPACA","nombre":"TCIA UJINA (F)","tipo_unidad":"TENENCIA","latitude":-20.708080558,"longitude":-68.694841117,"ano":"2014"},{"id":"b10bd49f-8718-42af-9390-cf787a6bda88","region":"REGION TARAPACA","nombre":"2DA. COM. POZO ALMONTE","tipo_unidad":"COMISARIA","latitude":-20.256168702,"longitude":-69.785720821,"ano":"2014"},{"id":"d8fbbdf2-b016-4b18-ad07-10b31e1234f5","region":"REGION TARAPACA","nombre":"RETEN CHANAVAYITA (M.C.)","tipo_unidad":"RETEN","latitude":-20.7049920896,"longitude":-70.1869963118,"ano":"2014"},{"id":"a7e17862-3568-4fef-804c-4f995f8b687b","region":"REGION ATACAMA","nombre":"RETEN LAGUNA VERDE MARICUNGA","tipo_unidad":"RETEN","latitude":-26.8935753048,"longitude":-68.4700140265,"ano":"2014"},{"id":"d8e98f75-996a-4c2a-9c75-e399449d2aa6","region":"REGION COQUIMBO","nombre":"GARITA ATENCION COMUNITARIA PUNTA DE CHOROS (T)","tipo_unidad":"GARITA COMUNITARIA","latitude":-29.2464654498,"longitude":-71.4610645589,"ano":"2014"},{"id":"c4057b01-ec59-4437-8ec5-597e9b72bb84","region":"REGION METROPOLITANA DE SANTIAGO","nombre":"53A.  COM. LO BARNECHEA","tipo_unidad":"COMISARIA","latitude":-33.3586746371,"longitude":-70.5061284054,"ano":"2014"},{"id":"fe8c5e32-dedf-454b-a305-d954c1fef1ef","region":"REGION METROPOLITANA DE SANTIAGO","nombre":"57A. COM. MOTORIZADA","tipo_unidad":"COMISARIA","latitude":-33.41787263,"longitude":-70.66117491,"ano":"2015"},{"id":"d92e594a-1924-42db-b803-70fe151e39ff","region":"REGION METROPOLITANA DE SANTIAGO","nombre":"30A. COM. RADIOPATRULLAS","tipo_unidad":"COMISARA","latitude":-33.41910746,"longitude":-70.6612366,"ano":"2015"},{"id":"ae59cf7d-feb1-4f7f-adc7-253a027022f8","region":"REGION LOS LAGOS","nombre":"RETEN CORRENTOSO","tipo_unidad":"RETEN","latitude":-41.4535440604,"longitude":-72.6642544257,"ano":"2014"},{"id":"ba75deaf-4272-4b0f-91e4-d80c93f46fcd","region":"REGION METROPOLITANA DE SANTIAGO","nombre":"SCOM. CHICUREO","tipo_unidad":"SUBCOMISARIA","latitude":-33.2785041279,"longitude":-70.6549819999,"ano":"2014"},{"id":"d459a5fb-653c-4fad-a3eb-c8d32da25206","region":"REGION MAULE","nombre":"RETEN ENTRE RIOS","tipo_unidad":"RETEN","latitude":-35.07771542,"longitude":-71.260417926,"ano":"2014"},{"id":"b34eba59-f374-41b2-ad41-7cdfe7149695","region":"REGION METROPOLITANA DE SANTIAGO","nombre":"SCOM. LO BARNECHEA","tipo_unidad":"SUBCOMISARIA","latitude":-33.3333773792,"longitude":-70.5204861829,"ano":"2016"},{"id":"164af40e-86d8-4c96-8f56-c02ddfbdbdb5","region":"REGION VALPARAISO","nombre":"4TA. COM. CONCON","tipo_unidad":"COMISARIA","latitude":-32.9292159634,"longitude":-71.5163779565,"ano":"2016"},{"id":"3c4c7abe-d266-48b1-8b70-e86987a6ae39","region":"REGION VALPARAISO","nombre":"TCIA. SAN ESTEBAN (F)","tipo_unidad":"TENENCIA","latitude":-32.8011674199,"longitude":-70.5817110874,"ano":"2014"},{"id":"eb71fbc9-efa2-4d75-a001-18a1d2765c29","region":"REGION COQUIMBO","nombre":"TCIA. CARR. ELQUI","tipo_unidad":"TENENCIA CARRETERAS","latitude":-29.4157327362,"longitude":-71.1785628064,"ano":"2017"},{"id":"db8548fc-310f-4946-9242-241927e03293","region":"REGION METROPOLITANA DE SANTIAGO","nombre":"66A. COM. BAJOS DE MENA","tipo_unidad":"COMISARIA","latitude":-33.6255533894,"longitude":-70.6127922504,"ano":"2017"},{"id":"b321a9bd-819d-4cd4-85a9-867c3f630fc5","region":"REGION METROPOLITANA DE SANTIAGO","nombre":"14A. COM. SAN BERNARDO","tipo_unidad":"COMISARIA","latitude":-33.5921081856,"longitude":-70.701290222,"ano":"2018"}]