[{"id":"f4e93611-ce8d-4aa3-a1dc-c520daa3c7f5","region":"REGION ARICA Y PARINACOTA","nombre":"1RA. COM. ARICA","tipo_unidad":"COMISARIA","latitude":-18.4781864934,"longitude":-70.3116048842,"ano":"2014"},{"id":"5d3e3172-5877-45da-bec1-99fffa9c022b","region":"REGION ARICA Y PARINACOTA","nombre":"2DA. COM. PUTRE","tipo_unidad":"COMISARIA","latitude":-18.195069385,"longitude":-69.559351014,"ano":"2014"},{"id":"36106c2d-f2c3-4291-8508-c02be3150bc5","region":"REGION ARICA Y PARINACOTA","nombre":"3RA. COM. ARICA","tipo_unidad":"COMISARIA","latitude":-18.47043,"longitude":-70.29381,"ano":"2014"},{"id":"7e0851a4-5ecf-40c5-bb64-11521518a4bb","region":"REGION ARICA Y PARINACOTA","nombre":"RETEN ALCERRECA (F)","tipo_unidad":"RETEN","latitude":-17.992306253,"longitude":-69.660406386,"ano":"2014"},{"id":"99f1a2ac-4ce3-4d8b-bf9a-270f8b45d997","region":"REGION ARICA Y PARINACOTA","nombre":"RETEN CAQUENA (F)","tipo_unidad":"RETEN","latitude":-18.054582827,"longitude":-69.201796215,"ano":"2014"},{"id":"26199767-6101-41f5-958b-51a8034c44a2","region":"REGION ARICA Y PARINACOTA","nombre":"RETEN CENTRAL (F)","tipo_unidad":"RETEN","latitude":-18.361654723,"longitude":-69.959276389,"ano":"2014"},{"id":"aebf5782-b4ec-416c-b18b-40c1bfb39821","region":"REGION ARICA Y PARINACOTA","nombre":"RETEN C.CHAPIQUINA","tipo_unidad":"RETEN","latitude":-18.371896629,"longitude":-69.548415354,"ano":"2014"},{"id":"f5301a40-101b-42b6-9e3c-1e22d7a2c607","region":"REGION ARICA Y PARINACOTA","nombre":"RETEN CHILCAYA (F)","tipo_unidad":"RETEN","latitude":-18.79402893,"longitude":-69.084711776,"ano":"2014"},{"id":"d7acd5dd-851a-4e01-81a3-15315b2b3559","region":"REGION ARICA Y PARINACOTA","nombre":"RETEN CHUCUYO (F)","tipo_unidad":"RETEN","latitude":-18.218535624,"longitude":-69.321509389,"ano":"2014"},{"id":"5504cd90-67e2-4ed3-acae-b24f8dddaab2","region":"REGION ARICA Y PARINACOTA","nombre":"RETEN CODPA","tipo_unidad":"RETEN","latitude":-18.833653146,"longitude":-69.744262734,"ano":"2014"},{"id":"c81385f3-6dc6-412d-b357-8be6a66276b6","region":"REGION ARICA Y PARINACOTA","nombre":"RETEN GUALLATIRE (F)","tipo_unidad":"RETEN","latitude":-18.497253458,"longitude":-69.154283807,"ano":"2014"},{"id":"5c853087-dbd7-4e05-a271-d81e7e0be092","region":"REGION ARICA Y PARINACOTA","nombre":"RETEN POCONCHILE (M.C.)","tipo_unidad":"RETEN","latitude":-18.4524921822,"longitude":-70.0667484034,"ano":"2014"},{"id":"4913763e-3e51-452b-bbd8-c14a143d04b9","region":"REGION ARICA Y PARINACOTA","nombre":"RETEN SAN MIGUEL DE AZAPA","tipo_unidad":"RETEN","latitude":-18.518914907,"longitude":-70.179583587,"ano":"2014"},{"id":"8612fa5c-e728-49d3-9e08-5ce188008112","region":"REGION ARICA Y PARINACOTA","nombre":"RETEN TACORA (F)","tipo_unidad":"RETEN","latitude":-17.771957192,"longitude":-69.72439765,"ano":"2014"},{"id":"7129490d-e046-4ce7-8d4c-111523b3444b","region":"REGION ARICA Y PARINACOTA","nombre":"4TA. COM. CHACALLUTA (F)","tipo_unidad":"COMISARIA","latitude":-18.361667,"longitude":-70.304442,"ano":"2014"},{"id":"65c56c54-36cc-4f32-9198-2dbb61979379","region":"REGION ARICA Y PARINACOTA","nombre":"SCOM. CHINCHORRO NORTE","tipo_unidad":"SUBCOMISARIA","latitude":-18.44581,"longitude":-70.29279,"ano":"2014"},{"id":"e216b6a4-fb2f-434d-8aaa-85d148c790ba","region":"REGION ARICA Y PARINACOTA","nombre":"TCIA. CARRET. ARICA","tipo_unidad":"TENENCIA CARRETERAS","latitude":-19.160613,"longitude":-70.179247,"ano":"2014"},{"id":"4df75b2e-0db7-4077-959a-99024809671d","region":"REGION ARICA Y PARINACOTA","nombre":"TCIA. CHUNGARA (F)","tipo_unidad":"TENENCIA","latitude":-18.281647555,"longitude":-69.138235335,"ano":"2014"},{"id":"7667faef-100f-40ad-8b62-eb623f244705","region":"REGION ARICA Y PARINACOTA","nombre":"TCIA. VISVIRI (F)","tipo_unidad":"TENENCIA","latitude":-17.59501412,"longitude":-69.47702097,"ano":"2014"},{"id":"c4534e6a-0e59-4b78-9db2-9da24a610d40","region":"REGION LOS RIOS","nombre":"4TA. COM. RIO BUENO","tipo_unidad":"COMISARIA","latitude":-40.335513,"longitude":-72.957899,"ano":"2014"},{"id":"e6f3ed12-9f95-4fad-870f-cdc3eb1e44dc","region":"REGION LOS RIOS","nombre":"RETEN NIEBLA","tipo_unidad":"RETEN","latitude":-39.865101346,"longitude":-73.394399733,"ano":"2014"},{"id":"5f1bdabf-6b86-47a7-a1ed-f500fe842cdc","region":"REGION LOS RIOS","nombre":"RETEN VIVANCO","tipo_unidad":"RETEN","latitude":-40.375031501,"longitude":-72.621297341,"ano":"2014"},{"id":"a4751280-d692-4399-b7c0-c053f122b4ef","region":"REGION LOS RIOS","nombre":"TCIA. SUBTTE. RUBEN MOGOLLONES A.","tipo_unidad":"TENENCIA","latitude":-39.83304,"longitude":-73.20145,"ano":"2014"},{"id":"ce66ad40-3493-4f22-a974-adaf358af0a3","region":"REGION LOS RIOS","nombre":"1RA. COM. VALDIVIA","tipo_unidad":"COMISARIA","latitude":-39.81787,"longitude":-73.23519,"ano":"2014"},{"id":"bd9e14b9-07f2-48a7-9538-cca90c532a11","region":"REGION LOS RIOS","nombre":"2DA. COM. LOS LAGOS","tipo_unidad":"COMISARIA","latitude":-39.862172,"longitude":-72.812468,"ano":"2014"},{"id":"26f23186-b879-4306-80df-b1dd2c3dab7b","region":"REGION LOS RIOS","nombre":"3RA. COM. LA UNION","tipo_unidad":"COMISARIA","latitude":-40.29325,"longitude":-73.08435,"ano":"2014"},{"id":"281f6c25-d173-4885-ada2-711a320ffbb3","region":"REGION LOS RIOS","nombre":"5TA. COM. PANGUIPULLI","tipo_unidad":"COMISARIA","latitude":-39.641206,"longitude":-72.336915,"ano":"2014"},{"id":"77597da9-ccb0-404a-9677-4907a7beec74","region":"REGION LOS RIOS","nombre":"AVANZADA CARRIRINE (F)","tipo_unidad":"AVANZADA","latitude":-39.776401952,"longitude":-71.700881147,"ano":"2014"},{"id":"97e096d3-a0b2-44e8-b8bd-7a121a2e3317","region":"REGION LOS RIOS","nombre":"AVANZADA LILPELA (T.F.)","tipo_unidad":"AVANZADA","latitude":-40.231851328,"longitude":-71.95656859,"ano":"2014"},{"id":"83f9cff5-7134-47ea-9cac-d6adc41a6cd5","region":"REGION LOS RIOS","nombre":"RETEN ANTILHUE","tipo_unidad":"RETEN","latitude":-39.805309642,"longitude":-72.960065068,"ano":"2014"},{"id":"d27c60b0-684f-4ba3-9847-cfc1dc1c79f3","region":"REGION LOS RIOS","nombre":"RETEN CARIMALLIN","tipo_unidad":"RETEN","latitude":-40.555218,"longitude":-72.774003,"ano":"2014"},{"id":"8dac8168-3666-44e5-9481-a65ecc27d4be","region":"REGION LOS RIOS","nombre":"RETEN CATAMUTUN","tipo_unidad":"RETEN","latitude":-40.158705996,"longitude":-73.129846758,"ano":"2014"},{"id":"95772085-9a9a-4d90-829d-9571c39c1160","region":"REGION LOS RIOS","nombre":"RETEN CHOSHUENCO","tipo_unidad":"RETEN","latitude":-39.837583903,"longitude":-72.083745519,"ano":"2014"},{"id":"8a0c8c80-8c49-4aa2-b9e8-cda44ec57a44","region":"REGION LOS RIOS","nombre":"RETEN CONARIPE","tipo_unidad":"RETEN","latitude":-39.566540394,"longitude":-72.008385032,"ano":"2014"},{"id":"6c195e0b-2f7c-4197-85e0-d81c6b0c06b7","region":"REGION LOS RIOS","nombre":"RETEN CUNCO MASHUE","tipo_unidad":"RETEN","latitude":-40.268196668,"longitude":-73.295731406,"ano":"2014"},{"id":"474de7a4-2efc-4855-824b-656e3d0ccae7","region":"REGION LOS RIOS","nombre":"RETEN DIUMEN","tipo_unidad":"RETEN","latitude":-40.307477113,"longitude":-72.692354715,"ano":"2014"},{"id":"a1029728-faa4-4ce9-b048-585cf182c260","region":"REGION LOS RIOS","nombre":"RETEN ISLA TEJAS","tipo_unidad":"RETEN","latitude":-39.81538,"longitude":-73.25789,"ano":"2014"},{"id":"507c0fee-24dd-4470-b9ff-a0a4e6b10fcd","region":"REGION LOS RIOS","nombre":"RETEN LLIFEN (F)","tipo_unidad":"RETEN","latitude":-40.198082568,"longitude":-72.258737041,"ano":"2014"},{"id":"f9d207fd-3294-4b9a-a8f2-ee95d7df1bcb","region":"REGION LOS RIOS","nombre":"RETEN MALALHUE","tipo_unidad":"RETEN","latitude":-39.544654499,"longitude":-72.502445644,"ano":"2014"},{"id":"355ba0b1-6741-4ce6-88e0-aedd4f1ff03d","region":"REGION LOS RIOS","nombre":"RETEN MANTILHUE","tipo_unidad":"RETEN","latitude":-40.620412449,"longitude":-72.492781087,"ano":"2014"},{"id":"95339dc6-d07e-483c-9767-b77c9f069950","region":"REGION LOS RIOS","nombre":"RETEN MEHUIN","tipo_unidad":"RETEN","latitude":-39.431048223,"longitude":-73.213279597,"ano":"2014"},{"id":"be3bb743-e50b-4ed8-ac98-9ed28dcb9024","region":"REGION LOS RIOS","nombre":"RETEN NELTUME","tipo_unidad":"RETEN","latitude":-39.851041843,"longitude":-71.945500556,"ano":"2014"},{"id":"536eb8dd-aa54-462e-b009-b6bd8197f6d3","region":"REGION LOS RIOS","nombre":"RETEN PICHIRROPULLI","tipo_unidad":"RETEN","latitude":-40.149733476,"longitude":-72.893053718,"ano":"2014"},{"id":"02e5e585-453a-4d44-bd8f-1e7af5f1ed7a","region":"REGION LOS RIOS","nombre":"RETEN PUERTO NUEVO","tipo_unidad":"RETEN","latitude":-40.243249568,"longitude":-72.579708481,"ano":"2014"},{"id":"15ad7701-239e-4b04-8d24-aa4a55952c9c","region":"REGION LOS RIOS","nombre":"RETEN PUNUCAPA","tipo_unidad":"RETEN","latitude":-39.756764635,"longitude":-73.264437068,"ano":"2014"},{"id":"6b7cb8fa-213d-45e0-9a7e-cd9c3cc87447","region":"REGION LOS RIOS","nombre":"RETEN REUMEN","tipo_unidad":"RETEN","latitude":-39.987558405,"longitude":-72.833310312,"ano":"2014"},{"id":"365f1eb7-01a1-48f2-a283-f11d04c2719c","region":"REGION LOS RIOS","nombre":"RETEN RINIHUE","tipo_unidad":"RETEN","latitude":-39.819646483,"longitude":-72.442840378,"ano":"2014"},{"id":"875b539b-ac12-4564-9cf5-ae6225a4ed96","region":"REGION LOS RIOS","nombre":"RETEN RININAHUE (F)","tipo_unidad":"RETEN","latitude":-40.322200974,"longitude":-72.211218209,"ano":"2014"},{"id":"59a76a15-e9e3-4ef2-b08a-aa036ed27bc3","region":"REGION LOS RIOS","nombre":"SCOM. GENERAL OSCAR CRISTI G.","tipo_unidad":"SUBCOMISARIA","latitude":-39.83878,"longitude":-73.22762,"ano":"2014"},{"id":"4c39d03e-1a52-4493-96a0-8b0aa2afd980","region":"REGION LOS RIOS","nombre":"SCOM. LANCO","tipo_unidad":"SUBCOMISARIA","latitude":-39.452303,"longitude":-72.772399,"ano":"2014"},{"id":"8d8c4dc3-a99b-4159-ad4c-cbb87f995328","region":"REGION LOS RIOS","nombre":"SCOM. PAILLACO","tipo_unidad":"SUBCOMISARIA","latitude":-40.069406,"longitude":-72.873057,"ano":"2014"},{"id":"8f4dfe19-b1a3-4f9f-b63d-b4059489509d","region":"REGION LOS RIOS","nombre":"TCIA. CARRET. VALDIVIA","tipo_unidad":"TENENCIA CARRETERAS","latitude":-40.171812,"longitude":-72.900682,"ano":"2014"},{"id":"d8aa5c46-4c81-4714-a3f5-128896b5723e","region":"REGION LOS RIOS","nombre":"TCIA. CORRAL (M)","tipo_unidad":"TENENCIA","latitude":-39.8890662246,"longitude":-73.4264571712,"ano":"2014"},{"id":"d854d884-dc6a-4880-9d57-b4fb4aff57df","region":"REGION LOS RIOS","nombre":"TCIA. FUTRONO","tipo_unidad":"TENENCIA","latitude":-40.1278359731,"longitude":-72.3938395892,"ano":"2014"},{"id":"22e8fa00-ed2d-4f50-8925-5ddd075f4e48","region":"REGION LOS RIOS","nombre":"TCIA. LAGO RANCO","tipo_unidad":"TENENCIA","latitude":-40.31998,"longitude":-72.476852,"ano":"2014"},{"id":"64e8c01d-fb61-4a30-9f35-512ae0e0f976","region":"REGION LOS RIOS","nombre":"TCIA. LIQUINE (F)","tipo_unidad":"TENENCIA","latitude":-39.747578164,"longitude":-71.85547217,"ano":"2014"},{"id":"98009e0b-d557-4f98-bdee-6eccb10daace","region":"REGION LOS RIOS","nombre":"TCIA. LOS JAZMINES","tipo_unidad":"TENENCIA","latitude":-39.82154,"longitude":-73.21096,"ano":"2014"},{"id":"5405ab5c-a836-4382-906d-4c446eb8372a","region":"REGION LOS RIOS","nombre":"TCIA. MAFIL","tipo_unidad":"TENENCIA","latitude":-39.666573,"longitude":-72.948027,"ano":"2014"},{"id":"a6542354-6ccb-4a79-8749-320cbc583427","region":"REGION LOS RIOS","nombre":"TCIA. PIRIHUEICO (F)","tipo_unidad":"TENENCIA","latitude":-40.096905076,"longitude":-71.678564905,"ano":"2014"},{"id":"d5803970-39da-494f-be8e-c2c221acc295","region":"REGION LOS RIOS","nombre":"SCOM. SAN JOSE DE LA MARIQUINA","tipo_unidad":"SUBCOMISARIA","latitude":-39.5368154755,"longitude":-72.9577236383,"ano":"2014"},{"id":"34d274f5-46fe-47bc-baf8-ab0d021c60f6","region":"REGION METROPOLITANA DE SANTIAGO","nombre":"26A. COM. PUDAHUEL","tipo_unidad":"COMISARIA","latitude":-33.448449,"longitude":-70.739676,"ano":"2014"},{"id":"3c264066-2b9c-4d31-9651-94b05526fea9","region":"REGION METROPOLITANA DE SANTIAGO","nombre":"10A. COM. LA CISTERNA","tipo_unidad":"COMISARIA","latitude":-33.540997,"longitude":-70.665454,"ano":"2014"},{"id":"7ba0a131-9a9c-4af3-90e3-0526fcadaf14","region":"REGION METROPOLITANA DE SANTIAGO","nombre":"12A. COM. SAN MIGUEL","tipo_unidad":"COMISARIA","latitude":-33.48971,"longitude":-70.65089,"ano":"2014"},{"id":"70551c3c-b96a-4596-bd3f-0f8ec4367ca9","region":"REGION METROPOLITANA DE SANTIAGO","nombre":"13A. COM. LA GRANJA","tipo_unidad":"COMISARIA","latitude":-33.53528,"longitude":-70.61347,"ano":"2014"},{"id":"88900946-08ea-4e85-a8d6-1764b20c9a23","region":"REGION METROPOLITANA DE SANTIAGO","nombre":"62A. COM. SAN BERNARDO","tipo_unidad":"COMISARIA","latitude":-33.594302,"longitude":-70.686779,"ano":"2014"},{"id":"11711597-d36a-49f3-9ce9-178f4f8ed2de","region":"REGION METROPOLITANA DE SANTIAGO","nombre":"15A. COM. BUIN","tipo_unidad":"COMISARIA","latitude":-33.728171,"longitude":-70.74482,"ano":"2014"},{"id":"e86b3b66-f28b-4212-8249-ae6c81e65bc7","region":"REGION METROPOLITANA DE SANTIAGO","nombre":"16A. COM. LA REINA","tipo_unidad":"COMISARIA","latitude":-33.44148,"longitude":-70.54426,"ano":"2014"},{"id":"b75db2c2-df7c-40dd-aaa7-2c7ea3d21ed4","region":"REGION METROPOLITANA DE SANTIAGO","nombre":"17A. COM. LAS CONDES","tipo_unidad":"COMISARIA","latitude":-33.394174,"longitude":-70.554086,"ano":"2014"},{"id":"283272eb-5a3e-4013-936f-537237d7532b","region":"REGION METROPOLITANA DE SANTIAGO","nombre":"18A. COM. NUNOA","tipo_unidad":"COMISARIA","latitude":-33.45336,"longitude":-70.57571,"ano":"2014"},{"id":"7c9d3389-a7c1-4905-9eab-603a7ae1620f","region":"REGION METROPOLITANA DE SANTIAGO","nombre":"19A. COM. PROVIDENCIA","tipo_unidad":"COMISARIA","latitude":-33.43243,"longitude":-70.62009,"ano":"2014"},{"id":"de1fbb54-dee2-45c3-a58f-77dcbc3ac304","region":"REGION METROPOLITANA DE SANTIAGO","nombre":"1RA. COM. SANTIAGO","tipo_unidad":"COMISARIA","latitude":-33.43587,"longitude":-70.64756,"ano":"2014"},{"id":"ede4e470-a28d-453c-b361-8e152ce162c3","region":"REGION METROPOLITANA DE SANTIAGO","nombre":"20A. COM. P. ALTO","tipo_unidad":"COMISARIA","latitude":-33.60743,"longitude":-70.57532,"ano":"2014"},{"id":"9a9faa19-e97d-4fe2-a2bd-bb65c69710a0","region":"REGION METROPOLITANA DE SANTIAGO","nombre":"21A.COM. ESTACION CENTRAL","tipo_unidad":"COMISARIA","latitude":-33.45131,"longitude":-70.69242,"ano":"2014"},{"id":"35546a99-72d3-42cb-bc49-0e92858077cd","region":"REGION METROPOLITANA DE SANTIAGO","nombre":"22A. COM. QUINTA NORMAL","tipo_unidad":"COMISARIA","latitude":-33.4298448173,"longitude":-70.7146509852,"ano":"2014"},{"id":"ee787a71-58f8-4009-aecc-071dc6434b43","region":"REGION METROPOLITANA DE SANTIAGO","nombre":"23A. COM. TALAGANTE","tipo_unidad":"COMISARIA","latitude":-33.670651,"longitude":-70.938787,"ano":"2014"},{"id":"05a335ca-38b5-4903-aaa8-6b1a98468ffb","region":"REGION METROPOLITANA DE SANTIAGO","nombre":"24A. COM. MELIPILLA","tipo_unidad":"COMISARIA","latitude":-33.68794,"longitude":-71.215386,"ano":"2014"},{"id":"1e428147-1da4-4aab-8d16-97d5e9aebe36","region":"REGION METROPOLITANA DE SANTIAGO","nombre":"25A. COM. MAIPU","tipo_unidad":"COMISARIA","latitude":-33.507197,"longitude":-70.754619,"ano":"2014"},{"id":"377442bf-1d08-4149-8937-3c68bf8fdacb","region":"REGION METROPOLITANA DE SANTIAGO","nombre":"2DA. COM. SANTIAGO","tipo_unidad":"COMISARIA","latitude":-33.45455,"longitude":-70.6681,"ano":"2014"},{"id":"9edacd28-d6f4-4af8-ad5f-5f02f369b454","region":"REGION METROPOLITANA DE SANTIAGO","nombre":"31A. COM. SAN RAMON","tipo_unidad":"COMISARIA","latitude":-33.546011,"longitude":-70.644815,"ano":"2014"},{"id":"5df0a463-b53a-4c74-be1c-759d3fbcfaa6","region":"REGION METROPOLITANA DE SANTIAGO","nombre":"33A. COM. NUNOA","tipo_unidad":"COMISARIA","latitude":-33.4708,"longitude":-70.61386,"ano":"2014"},{"id":"1420b6d3-5f70-4979-901d-7101ba8bd286","region":"REGION METROPOLITANA DE SANTIAGO","nombre":"36A. COM. LA FLORIDA","tipo_unidad":"COMISARIA","latitude":-33.539667,"longitude":-70.597153,"ano":"2014"},{"id":"e93aba17-9f78-43ef-b126-a12c1a537dff","region":"REGION METROPOLITANA DE SANTIAGO","nombre":"37A. COM. VITACURA","tipo_unidad":"COMISARIA","latitude":-33.38941,"longitude":-70.55449,"ano":"2014"},{"id":"342e8d52-2f1f-469e-8c79-d857a959ccbf","region":"REGION METROPOLITANA DE SANTIAGO","nombre":"38A. COM. PUENTE ALTO","tipo_unidad":"COMISARIA","latitude":-33.57892,"longitude":-70.58151,"ano":"2014"},{"id":"0a32e830-99ac-4760-bb4d-8365ac1f7cb8","region":"REGION METROPOLITANA DE SANTIAGO","nombre":"39A. COM. EL BOSQUE","tipo_unidad":"COMISARIA","latitude":-33.565682,"longitude":-70.666083,"ano":"2014"},{"id":"3a7312d8-b760-46b1-84ed-08c28d658a42","region":"REGION METROPOLITANA DE SANTIAGO","nombre":"3RA. COM. SANTIAGO","tipo_unidad":"COMISARIA","latitude":-33.44196,"longitude":-70.65855,"ano":"2014"},{"id":"365be832-ba51-47df-a3e4-f602ab03361e","region":"REGION METROPOLITANA DE SANTIAGO","nombre":"41A. COM. LA PINTANA","tipo_unidad":"COMISARIA","latitude":-33.58296,"longitude":-70.631528,"ano":"2014"},{"id":"aea95060-566d-4ca6-8b8a-416eec656aea","region":"REGION METROPOLITANA DE SANTIAGO","nombre":"43A. COM. PENALOLEN","tipo_unidad":"COMISARIA","latitude":-33.478178,"longitude":-70.544176,"ano":"2014"},{"id":"f2500e96-d49c-48f5-9d4c-01eba3cf75fc","region":"REGION METROPOLITANA DE SANTIAGO","nombre":"44A. COM. LO PRADO","tipo_unidad":"COMISARIA","latitude":-33.442814,"longitude":-70.715861,"ano":"2014"},{"id":"18f41810-d90c-47ea-b022-b18f29189014","region":"REGION METROPOLITANA DE SANTIAGO","nombre":"45A. COM. CERRO NAVIA","tipo_unidad":"COMISARIA","latitude":-33.422742,"longitude":-70.742827,"ano":"2014"},{"id":"623fc52b-b22d-41e1-912e-6292e5bcd0c8","region":"REGION METROPOLITANA DE SANTIAGO","nombre":"46A. COM. MACUL","tipo_unidad":"COMISARIA","latitude":-33.49011,"longitude":-70.60822,"ano":"2014"},{"id":"4283e0f5-b232-4b7f-88d8-cd9193fedf30","region":"REGION METROPOLITANA DE SANTIAGO","nombre":"49A. COM. QUILICURA","tipo_unidad":"COMISARIA","latitude":-33.3656,"longitude":-70.74739,"ano":"2014"},{"id":"404d3b97-1847-4fd1-841a-3fef91fe0ed9","region":"REGION METROPOLITANA DE SANTIAGO","nombre":"4TA. COM. SANTIAGO","tipo_unidad":"COMISARIA","latitude":-33.46533,"longitude":-70.64561,"ano":"2014"},{"id":"50ffe679-daa8-41b6-be8b-c1adacfd87ef","region":"REGION METROPOLITANA DE SANTIAGO","nombre":"50A. COM. SAN JOAQUIN","tipo_unidad":"COMISARIA","latitude":-33.48448,"longitude":-70.62988,"ano":"2014"},{"id":"eee2827f-e659-4498-ad80-c1b2330922b8","region":"REGION METROPOLITANA DE SANTIAGO","nombre":"51A. COM. PEDRO AGUIRRE CERDA","tipo_unidad":"COMISARIA","latitude":-33.494167,"longitude":-70.684469,"ano":"2014"},{"id":"996c2493-f3ca-432f-895e-64c0da21f583","region":"REGION METROPOLITANA DE SANTIAGO","nombre":"52A. COM. RINCONADA DE MAIPU","tipo_unidad":"COMISARIA","latitude":-33.511141,"longitude":-70.790934,"ano":"2014"},{"id":"e1c5765e-0063-4820-8119-b07fd44c1175","region":"REGION METROPOLITANA DE SANTIAGO","nombre":"54A. COM. HUECHURABA","tipo_unidad":"COMISARIA","latitude":-33.37512,"longitude":-70.63737,"ano":"2014"},{"id":"28acce18-7c40-478c-8571-2cb7daa68d02","region":"REGION METROPOLITANA DE SANTIAGO","nombre":"55A. COM. SUBOF. CRISTIAN VERA C.","tipo_unidad":"COMISARIA","latitude":-33.456552,"longitude":-70.755214,"ano":"2014"},{"id":"4bd5ff65-5ae8-4f1d-a0da-d9f921a6e5a9","region":"REGION METROPOLITANA DE SANTIAGO","nombre":"5TA. COM. CONCHALI","tipo_unidad":"COMISARIA","latitude":-33.390018,"longitude":-70.660168,"ano":"2014"},{"id":"aec936c8-7b0d-4797-ab62-598d57864684","region":"REGION METROPOLITANA DE SANTIAGO","nombre":"6TA. COM. RECOLETA","tipo_unidad":"COMISARIA","latitude":-33.40949,"longitude":-70.64198,"ano":"2014"},{"id":"2bb39e78-e8dc-439d-a76e-80d5a8ec5761","region":"REGION METROPOLITANA DE SANTIAGO","nombre":"7MA. COM. RENCA","tipo_unidad":"COMISARIA","latitude":-33.40393,"longitude":-70.70447,"ano":"2014"},{"id":"d919b090-381a-43e6-8bb4-d08e0da9dbb0","region":"REGION METROPOLITANA DE SANTIAGO","nombre":"8VA. COM. COLINA","tipo_unidad":"COMISARIA","latitude":-33.204108,"longitude":-70.675899,"ano":"2014"},{"id":"cc53f7f5-6b95-4c6e-942a-551481b27bb2","region":"REGION METROPOLITANA DE SANTIAGO","nombre":"9NA. COM. INDEPENDENCIA","tipo_unidad":"COMISARIA","latitude":-33.40677,"longitude":-70.65722,"ano":"2014"},{"id":"df541ab0-4da1-43de-bd9a-d851ad82eb46","region":"REGION METROPOLITANA DE SANTIAGO","nombre":"AVANZADA CRUZ DE PIEDRA","tipo_unidad":"AVANZADA","latitude":-34.171522546,"longitude":-69.966114544,"ano":"2014"},{"id":"e7fd9860-34bb-4a6d-bfd9-775ba6c831ba","region":"REGION METROPOLITANA DE SANTIAGO","nombre":"TCIA. ALTO JAHUEL","tipo_unidad":"TENENCIA","latitude":-33.732001572,"longitude":-70.684043617,"ano":"2014"},{"id":"5e2aa8b1-1a5a-492f-ac9c-ccfc1298ae66","region":"REGION METROPOLITANA DE SANTIAGO","nombre":"TCIA. BOLLENAR","tipo_unidad":"TENENCIA","latitude":-33.568960669,"longitude":-71.211366241,"ano":"2014"},{"id":"6a3ae53e-4079-474c-90d6-c12654b9054b","region":"REGION METROPOLITANA DE SANTIAGO","nombre":"RETEN CALEU","tipo_unidad":"RETEN","latitude":-33.005249,"longitude":-70.993459,"ano":"2014"},{"id":"b6ec409a-a3c4-411d-87b0-2c2f03a07efc","region":"REGION METROPOLITANA DE SANTIAGO","nombre":"RETEN CASA MONEDA","tipo_unidad":"RETEN","latitude":-33.444344,"longitude":-70.685496,"ano":"2014"},{"id":"d9f8417a-8aba-41ac-94ef-e32e1f65225c","region":"REGION METROPOLITANA DE SANTIAGO","nombre":"TCIA. CHAMPA","tipo_unidad":"TENENCIA","latitude":-33.854985788,"longitude":-70.763587038,"ano":"2014"},{"id":"6e2be103-93ae-480f-ad56-150baa7cc285","region":"REGION METROPOLITANA DE SANTIAGO","nombre":"RETEN CODIGUA","tipo_unidad":"RETEN","latitude":-33.757167899,"longitude":-71.324024131,"ano":"2014"},{"id":"e75f878f-5b1f-40a5-91fd-45eae9994a3b","region":"REGION METROPOLITANA DE SANTIAGO","nombre":"TCIA. EL BOSQUE PONIENTE","tipo_unidad":"TENENCIA","latitude":-33.551911,"longitude":-70.688314,"ano":"2014"},{"id":"a94deda4-6cf9-442f-8103-00cae34d836a","region":"REGION METROPOLITANA DE SANTIAGO","nombre":"SCOM. EL CASTILLO","tipo_unidad":"SUBCOMISARIA","latitude":-33.59475,"longitude":-70.610684,"ano":"2014"},{"id":"6ae6e5e1-1ae7-4914-95b2-8804057e2485","region":"REGION METROPOLITANA DE SANTIAGO","nombre":"RETEN EL PAICO","tipo_unidad":"RETEN","latitude":-33.688836,"longitude":-71.053481,"ano":"2014"},{"id":"3ed536ef-fd52-46d8-8412-8073af32c143","region":"REGION METROPOLITANA DE SANTIAGO","nombre":"RETEN EL PERAL","tipo_unidad":"RETEN","latitude":-33.5752,"longitude":-70.57281,"ano":"2014"},{"id":"7aa2a5ed-a414-4015-ba2f-9eeecbe9be87","region":"REGION METROPOLITANA DE SANTIAGO","nombre":"RETEN ENEAS GONEL","tipo_unidad":"RETEN","latitude":-33.385206,"longitude":-70.658801,"ano":"2014"},{"id":"bd6e95f9-d3cf-4398-a077-e595b99a95c6","region":"REGION METROPOLITANA DE SANTIAGO","nombre":"RETEN FARELLONES","tipo_unidad":"RETEN","latitude":-33.352354421,"longitude":-70.3155405,"ano":"2014"},{"id":"2f8a42c4-c46b-4ffe-ad76-f99101cd71ec","region":"REGION METROPOLITANA DE SANTIAGO","nombre":"RETEN HUELQUEN","tipo_unidad":"RETEN","latitude":-33.83244324,"longitude":-70.641839448,"ano":"2014"},{"id":"cc8b2314-0b35-4035-8c4a-0edb4430cec9","region":"REGION METROPOLITANA DE SANTIAGO","nombre":"RETEN HUERTOS FAMILIARES","tipo_unidad":"RETEN","latitude":-33.136160023,"longitude":-70.798437922,"ano":"2014"},{"id":"8de30de3-e597-4cd2-89df-9bc1d86d2df4","region":"REGION METROPOLITANA DE SANTIAGO","nombre":"RETEN LA ISLITA","tipo_unidad":"RETEN","latitude":-33.747324,"longitude":-70.865866,"ano":"2014"},{"id":"a0693698-8bc0-420d-a1ec-d71592060bd1","region":"REGION METROPOLITANA DE SANTIAGO","nombre":"SCOM. LAS VIZCACHAS","tipo_unidad":"SUBCOMISARIA","latitude":-33.59928,"longitude":-70.53069,"ano":"2014"},{"id":"4e9bceb0-d4e6-4a06-8551-89cc63506172","region":"REGION METROPOLITANA DE SANTIAGO","nombre":"TCIA. LINDEROS","tipo_unidad":"TENENCIA","latitude":-33.75982,"longitude":-70.735632,"ano":"2014"},{"id":"44e1bcd8-c215-4ad4-ad18-f1dcf4e965f6","region":"REGION METROPOLITANA DE SANTIAGO","nombre":"RETEN LOICA","tipo_unidad":"RETEN","latitude":-33.976332543,"longitude":-71.46973417,"ano":"2014"},{"id":"a989038d-7c31-4c90-99aa-055fc009ae07","region":"REGION METROPOLITANA DE SANTIAGO","nombre":"RETEN MALLARAUCO","tipo_unidad":"RETEN","latitude":-33.584781077,"longitude":-70.987087105,"ano":"2014"},{"id":"53f52c82-5412-47fe-91f1-7b22f9d7bc73","region":"REGION METROPOLITANA DE SANTIAGO","nombre":"RETEN PINTUE","tipo_unidad":"RETEN","latitude":-33.877285223,"longitude":-70.88485378,"ano":"2014"},{"id":"dfe94a29-9280-4832-aa7d-dfd27743be06","region":"REGION METROPOLITANA DE SANTIAGO","nombre":"RETEN POMAIRE","tipo_unidad":"RETEN","latitude":-33.65074456,"longitude":-71.151176696,"ano":"2014"},{"id":"f437e03c-608e-4883-a9fe-90cd8659f2f1","region":"REGION METROPOLITANA DE SANTIAGO","nombre":"RETEN RUNGUE","tipo_unidad":"RETEN","latitude":-33.00629527,"longitude":-70.889069809,"ano":"2014"},{"id":"8a9dbba6-8e75-4190-8ab8-0ea6c2b54a7b","region":"REGION METROPOLITANA DE SANTIAGO","nombre":"RETEN SAN GABRIEL (F)","tipo_unidad":"RETEN","latitude":-33.782289768,"longitude":-70.239351269,"ano":"2014"},{"id":"043196d3-087e-480b-97fe-0103967e7479","region":"REGION METROPOLITANA DE SANTIAGO","nombre":"TCIA. VILUCO","tipo_unidad":"TENENCIA","latitude":-33.782423844,"longitude":-70.791540572,"ano":"2014"},{"id":"653e44ac-50e4-45a7-843d-fae63dd1e648","region":"REGION METROPOLITANA DE SANTIAGO","nombre":"27A. COM. AEROPUERTO INTERNACIONAL","tipo_unidad":"COMISARIA","latitude":-33.404522,"longitude":-70.792887,"ano":"2014"},{"id":"9bdbf02b-efba-4cbd-a686-5bd5e32145ca","region":"REGION METROPOLITANA DE SANTIAGO","nombre":"61A. COM. CABO 2 PABLO SILVA P.","tipo_unidad":"COMISARIA","latitude":-33.51173,"longitude":-70.5651,"ano":"2014"},{"id":"c3e2e7f3-714e-4f30-95b2-f2b77aab7381","region":"REGION METROPOLITANA DE SANTIAGO","nombre":"SCOM. CARRASCAL","tipo_unidad":"SUBCOMISARIA","latitude":-33.421246,"longitude":-70.695834,"ano":"2014"},{"id":"d8d83fcd-94cd-4af2-ab9f-011c690af286","region":"REGION METROPOLITANA DE SANTIAGO","nombre":"SCOM. CERRILLOS","tipo_unidad":"SUBCOMISARIA","latitude":-33.4795981114,"longitude":-70.6879514421,"ano":"2014"},{"id":"8e8b88a6-51ae-4d25-9af5-4bf48aab598a","region":"REGION METROPOLITANA DE SANTIAGO","nombre":"SCOM. CONCHALI NORTE","tipo_unidad":"SUBCOMISARIA","latitude":-33.366991,"longitude":-70.689631,"ano":"2014"},{"id":"a6be9514-d10c-4508-a854-ce6699b24bc5","region":"REGION METROPOLITANA DE SANTIAGO","nombre":"63A. COM. CURACAVI","tipo_unidad":"COMISARIA","latitude":-33.401340798,"longitude":-71.120081186,"ano":"2014"},{"id":"c761ac62-35da-4756-ba5b-c12c665740f2","region":"REGION METROPOLITANA DE SANTIAGO","nombre":"SCOM. LOS QUILLAYES","tipo_unidad":"SUBCOMISARIA","latitude":-33.564376,"longitude":-70.593524,"ano":"2014"},{"id":"93c78e0a-3c41-456d-87b0-a01351da7194","region":"REGION METROPOLITANA DE SANTIAGO","nombre":"SCOM. MAIPO","tipo_unidad":"SUBCOMISARIA","latitude":-33.729496,"longitude":-70.774752,"ano":"2014"},{"id":"43464204-9e03-4bac-89b1-f7879f1fb7ca","region":"REGION METROPOLITANA DE SANTIAGO","nombre":"SCOM. MAIPU ORIENTE","tipo_unidad":"SUBCOMISARIA","latitude":-33.558223,"longitude":-70.789735,"ano":"2014"},{"id":"511c8b42-c7be-4258-bbe7-55bc27dc9d4e","region":"REGION METROPOLITANA DE SANTIAGO","nombre":"64A. COM. PAINE","tipo_unidad":"COMISARIA","latitude":-33.807869,"longitude":-70.741648,"ano":"2014"},{"id":"c071e8c7-eaf6-43eb-b15a-a4fdef408f43","region":"REGION METROPOLITANA DE SANTIAGO","nombre":"SCOM. PARQUE BRASIL","tipo_unidad":"SUBCOMISARIA","latitude":-33.51536,"longitude":-70.61473,"ano":"2014"},{"id":"5d850b8a-bb94-442a-8066-400bd2763804","region":"REGION METROPOLITANA DE SANTIAGO","nombre":"56A. COM. PENAFLOR","tipo_unidad":"COMISARIA","latitude":-33.60772,"longitude":-70.90167,"ano":"2014"},{"id":"0536fa73-9531-447e-8381-bffd19811649","region":"REGION METROPOLITANA DE SANTIAGO","nombre":"SCOM. PENALOLEN","tipo_unidad":"SUBCOMISARIA","latitude":-33.483386,"longitude":-70.56782,"ano":"2014"},{"id":"d0a9a3be-a6bc-4ffb-a9ab-6d52cd8758e6","region":"REGION METROPOLITANA DE SANTIAGO","nombre":"58A. COM. PB. ALESSANDRI","tipo_unidad":"COMISARIA","latitude":-33.469971,"longitude":-70.698969,"ano":"2014"},{"id":"4125141d-d99d-49e9-8bfe-721b4e044175","region":"REGION METROPOLITANA DE SANTIAGO","nombre":"SCOM. PUDAHUEL NORTE","tipo_unidad":"SUBCOMISARIA","latitude":-33.432656,"longitude":-70.759865,"ano":"2014"},{"id":"b4709f75-27e5-4b4c-9dfd-25cc41145a91","region":"REGION METROPOLITANA DE SANTIAGO","nombre":"SCOM. SAN GERONIMO","tipo_unidad":"SUBCOMISARIA","latitude":-33.62275,"longitude":-70.58907,"ano":"2014"},{"id":"2cb2609b-3e12-42ae-bdd0-9056a974c8e8","region":"REGION METROPOLITANA DE SANTIAGO","nombre":"SCOM. SAN JOSE DE MAIPO (F)","tipo_unidad":"SUBCOMISARIA","latitude":-33.636318,"longitude":-70.353175,"ano":"2014"},{"id":"3e2b18ad-72a9-4bfd-9b0f-b9d92367997d","region":"REGION METROPOLITANA DE SANTIAGO","nombre":"SCOM. V. MODERNA","tipo_unidad":"SUBCOMISARIA","latitude":-33.40488,"longitude":-70.67253,"ano":"2014"},{"id":"336ed643-4865-4071-8403-b680f9f25467","region":"REGION METROPOLITANA DE SANTIAGO","nombre":"34A. COM. VISTA ALEGRE","tipo_unidad":"COMISARIA","latitude":-33.49881765,"longitude":-70.73229265,"ano":"2014"},{"id":"f0bd305a-bd62-4b9c-9624-32d5bdb3c0eb","region":"REGION METROPOLITANA DE SANTIAGO","nombre":"TCIA. ALC. CARLOS VALDOVINOS","tipo_unidad":"TENENCIA","latitude":-33.48087,"longitude":-70.674299,"ano":"2014"},{"id":"ed8e9bd6-e6c2-466f-a7b3-7fcc05c28fbf","region":"REGION METROPOLITANA DE SANTIAGO","nombre":"TCIA. BATUCO","tipo_unidad":"TENENCIA","latitude":-33.238708,"longitude":-70.807077,"ano":"2014"},{"id":"621e8c99-d08f-4d5d-833e-618a67a92255","region":"REGION METROPOLITANA DE SANTIAGO","nombre":"TCIA. CARRET. CURACAVI","tipo_unidad":"TENENCIA CARRETERAS","latitude":-33.405672249,"longitude":-71.188890721,"ano":"2014"},{"id":"073b2b92-2772-40b8-aef9-411fd57a4110","region":"REGION METROPOLITANA DE SANTIAGO","nombre":"TCIA. CARRET. LAMPA","tipo_unidad":"TENENCIA CARRETERAS","latitude":-33.232305554,"longitude":-70.76078891,"ano":"2014"},{"id":"bdb2a20b-2e27-47b4-8298-6b5845024f7d","region":"REGION METROPOLITANA DE SANTIAGO","nombre":"TCIA. CARRET. MELIPILLA","tipo_unidad":"TENENCIA CARRETERAS","latitude":-33.697542475,"longitude":-71.03294528,"ano":"2014"},{"id":"76d8a62e-509e-41f4-a225-cf2a655d55b5","region":"REGION METROPOLITANA DE SANTIAGO","nombre":"SCOM. PADRE HURTADO (M.C.)","tipo_unidad":"SUBCOMISARIA","latitude":-33.569,"longitude":-70.81537,"ano":"2014"},{"id":"2b2741a7-ac04-4d1e-89db-4cc0876802c1","region":"REGION METROPOLITANA DE SANTIAGO","nombre":"TCIA. CARRET. PAINE","tipo_unidad":"TENENCIA CARRETERAS","latitude":-33.89377388,"longitude":-70.735334213,"ano":"2014"},{"id":"3d3eae27-96fe-4c18-8308-108d25e31991","region":"REGION METROPOLITANA DE SANTIAGO","nombre":"SCOM.. EL MONTE","tipo_unidad":"SUBCOMISARIA","latitude":-33.678924,"longitude":-70.979044,"ano":"2014"},{"id":"a0acdae9-72cc-444a-95ef-de5e98e2aa53","region":"REGION METROPOLITANA DE SANTIAGO","nombre":"TCIA. EL SALTO","tipo_unidad":"TENENCIA","latitude":-33.39433,"longitude":-70.6256,"ano":"2014"},{"id":"946f9e52-f1ca-4635-9446-21d9b826e5ec","region":"REGION METROPOLITANA DE SANTIAGO","nombre":"TCIA. ISLA DE MAIPO","tipo_unidad":"TENENCIA","latitude":-33.74985,"longitude":-70.90273,"ano":"2014"},{"id":"9b0e4e8f-4d56-490c-97d6-a72221b10917","region":"REGION METROPOLITANA DE SANTIAGO","nombre":"TCIA. JOSE SANTOS OSSA","tipo_unidad":"TENENCIA","latitude":-33.39411,"longitude":-70.63696,"ano":"2014"},{"id":"6aee8dcd-f8d4-40e9-97c0-cc29d15a8133","region":"REGION METROPOLITANA DE SANTIAGO","nombre":"TCIA. JUAN ANTONIO RIOS","tipo_unidad":"TENENCIA","latitude":-33.42147,"longitude":-70.67091,"ano":"2014"},{"id":"4a2f1915-b209-4a0b-8743-352e2ec2bc0c","region":"REGION METROPOLITANA DE SANTIAGO","nombre":"TCIA. LA VICTORIA","tipo_unidad":"TENENCIA","latitude":-33.486792,"longitude":-70.679658,"ano":"2014"},{"id":"2ef17e31-1c97-4a33-8662-ec0041909165","region":"REGION METROPOLITANA DE SANTIAGO","nombre":"59A. COMISARIA LAMPA","tipo_unidad":"COMISARIA","latitude":-33.285618982,"longitude":-70.8728984653,"ano":"2014"},{"id":"435f45a7-234d-417f-824c-9b05825c76a5","region":"REGION METROPOLITANA DE SANTIAGO","nombre":"TCIA. LO SIERRA","tipo_unidad":"TENENCIA","latitude":-33.532204,"longitude":-70.703694,"ano":"2014"},{"id":"0847c005-3408-4931-9eca-6b9f980a9d1f","region":"REGION METROPOLITANA DE SANTIAGO","nombre":"SCOM. LO VELASQUEZ","tipo_unidad":"SUBCOMISARIA","latitude":-33.39829,"longitude":-70.74882,"ano":"2014"},{"id":"8ce5666d-39ef-464e-99c5-9e2ecb4efcfa","region":"REGION METROPOLITANA DE SANTIAGO","nombre":"SCOM. LOS JARDINES","tipo_unidad":"SUBCOMISARIA","latitude":-33.53467,"longitude":-70.57404,"ano":"2014"},{"id":"22ae0c2c-c0f8-4b9c-a9fd-c632e1f757e4","region":"REGION METROPOLITANA DE SANTIAGO","nombre":"TCIA. MALLOCO","tipo_unidad":"TENENCIA","latitude":-33.60206,"longitude":-70.85041,"ano":"2014"},{"id":"bda265e6-d72b-4a1f-b3c4-19a871514631","region":"REGION METROPOLITANA DE SANTIAGO","nombre":"TCIA. MARIA PINTO","tipo_unidad":"TENENCIA","latitude":-33.5156718494,"longitude":-71.1184209492,"ano":"2014"},{"id":"01de4957-c20d-444a-bf2b-c4fd5dcc2f20","region":"REGION METROPOLITANA DE SANTIAGO","nombre":"60A. COM. METRO SANTIAGO","tipo_unidad":"COMISARIA","latitude":-33.437411,"longitude":-70.634174,"ano":"2014"},{"id":"85ac5990-48f2-402a-84e0-f969db16b87e","region":"REGION METROPOLITANA DE SANTIAGO","nombre":"TCIA. NVA. ESPANA","tipo_unidad":"TENENCIA","latitude":-33.52834,"longitude":-70.67254,"ano":"2014"},{"id":"9c5999fd-71a0-4543-8a87-d0d0a5b5c52f","region":"REGION METROPOLITANA DE SANTIAGO","nombre":"TCIA. P, A.C","tipo_unidad":"TENENCIA","latitude":-33.503978,"longitude":-70.676001,"ano":"2014"},{"id":"329bb61b-60c6-4658-ab02-f1e02904e61f","region":"REGION METROPOLITANA DE SANTIAGO","nombre":"65A. COM. PIRQUE","tipo_unidad":"COMISARIA","latitude":-33.63436,"longitude":-70.57312,"ano":"2014"},{"id":"057abd38-2e4c-4d8a-b845-224188a10567","region":"REGION METROPOLITANA DE SANTIAGO","nombre":"SCOM. RECOLETA SUR","tipo_unidad":"SUBCOMISARIA","latitude":-33.42732,"longitude":-70.650932,"ano":"2014"},{"id":"1ae97ace-1387-4c1d-9936-e89b3e73db98","region":"REGION METROPOLITANA DE SANTIAGO","nombre":"TCIA. SAN LUIS","tipo_unidad":"TENENCIA","latitude":-33.504359,"longitude":-70.577419,"ano":"2014"},{"id":"89fb410c-393c-4f09-bb61-ad513bf28a0f","region":"REGION METROPOLITANA DE SANTIAGO","nombre":"TCIA. SAN PEDRO","tipo_unidad":"TENENCIA","latitude":-33.8954400642,"longitude":-71.4543185752,"ano":"2014"},{"id":"53a6aefb-4bb2-4a69-bbe7-b198e7028281","region":"REGION METROPOLITANA DE SANTIAGO","nombre":"TCIA. SANTA ADRIANA","tipo_unidad":"TENENCIA","latitude":-33.508111,"longitude":-70.67906,"ano":"2014"},{"id":"f5d133f9-8648-41db-83de-9cc69a6aba70","region":"REGION METROPOLITANA DE SANTIAGO","nombre":"TCIA. SANTA ROSA CHENA","tipo_unidad":"TENENCIA","latitude":-33.56417,"longitude":-70.795659,"ano":"2014"},{"id":"ba3bd084-8a45-4b99-90fe-1536c7e22a31","region":"REGION METROPOLITANA DE SANTIAGO","nombre":"TCIA. TILTIL","tipo_unidad":"TENENCIA","latitude":-33.08709,"longitude":-70.921799,"ano":"2014"},{"id":"777f791d-5569-4140-8a1f-0849326d4e30","region":"REGION METROPOLITANA DE SANTIAGO","nombre":"TCIA. TTE. MAURICIO RIVERA L.","tipo_unidad":"TENENCIA","latitude":-33.55631,"longitude":-70.61659,"ano":"2014"},{"id":"ebe908ca-6cb7-4c82-8897-76affb2f3a6e","region":"REGION METROPOLITANA DE SANTIAGO","nombre":"TCIA. VILLA ALHUE","tipo_unidad":"TENENCIA","latitude":-34.030837198,"longitude":-71.100528551,"ano":"2014"},{"id":"1dac363e-acbf-47c6-80dc-ee74d303034e","region":"REGION METROPOLITANA DE SANTIAGO","nombre":"11A. COM. LO ESPEJO","tipo_unidad":"COMISARIA","latitude":-33.507279,"longitude":-70.696376,"ano":"2014"},{"id":"66544499-87e5-48cb-96fe-5ca774e69a00","region":"REGION METROPOLITANA DE SANTIAGO","nombre":"47A. COM. LOS DOMINICOS","tipo_unidad":"COMISARIA","latitude":-33.403971,"longitude":-70.537785,"ano":"2014"},{"id":"68955a6e-2625-4f36-8d71-ba1a7ecd0758","region":"REGION METROPOLITANA DE SANTIAGO","nombre":"SCOM. CALERA DE TANGO","tipo_unidad":"SUBCOMISARIA","latitude":-33.630996,"longitude":-70.75827,"ano":"2014"},{"id":"f61fff04-bc7c-4915-8c97-fbd32b82c8ac","region":"REGION METROPOLITANA DE SANTIAGO","nombre":"TCIA. CARRET. COLINA","tipo_unidad":"TENENCIA CARRETERAS","latitude":-33.2192175774,"longitude":-70.6763451489,"ano":"2014"},{"id":"c0d41786-b0e3-4f76-8f8f-e589d772eb5c","region":"REGION MAGALLANES Y DE LA ANTARTICA CHILENA","nombre":"1RA. COM. PUNTA ARENAS U","tipo_unidad":"COMISARIA","latitude":-53.1644273052,"longitude":-70.9304364467,"ano":"2014"},{"id":"000f03ac-4169-4b06-9d20-456f5b9d9968","region":"REGION MAGALLANES Y DE LA ANTARTICA CHILENA","nombre":"2DA. COM. PUERTO NATALES","tipo_unidad":"COMISARIA","latitude":-51.7274700989,"longitude":-72.5064394899,"ano":"2014"},{"id":"b1dfd2d3-1562-48fd-806f-532a4d952a12","region":"REGION MAGALLANES Y DE LA ANTARTICA CHILENA","nombre":"3RA. COM. PORVENIR","tipo_unidad":"COMISARIA","latitude":-53.2964582076,"longitude":-70.3767007066,"ano":"2014"},{"id":"a537a075-3418-4213-99f6-a157f7c3388c","region":"REGION MAGALLANES Y DE LA ANTARTICA CHILENA","nombre":"RETEN AGUA FRESCA","tipo_unidad":"RETEN","latitude":-53.404403,"longitude":-70.990767,"ano":"2014"},{"id":"605ed7f1-8912-48f6-bff3-8e18651634fc","region":"REGION MAGALLANES Y DE LA ANTARTICA CHILENA","nombre":"RETEN CANADON GRANDE (F)","tipo_unidad":"RETEN","latitude":-52.191719509,"longitude":-69.210774826,"ano":"2014"},{"id":"73c19ac0-5c39-4cae-967c-48d72537c299","region":"REGION MAGALLANES Y DE LA ANTARTICA CHILENA","nombre":"RETEN CERRO GUIDO (F)","tipo_unidad":"RETEN","latitude":-50.9443072814,"longitude":-72.4603478505,"ano":"2014"},{"id":"d23bf0ac-b25b-4a78-a29a-da11e99f57c7","region":"REGION MAGALLANES Y DE LA ANTARTICA CHILENA","nombre":"RETEN DOROTEA (F)","tipo_unidad":"RETEN","latitude":-51.6044251954,"longitude":-72.3339527324,"ano":"2014"},{"id":"96b5132c-c384-4bfa-b141-4e1f70921bca","region":"REGION MAGALLANES Y DE LA ANTARTICA CHILENA","nombre":"RETEN MORRO CHICO (F)","tipo_unidad":"RETEN","latitude":-52.0553333052,"longitude":-71.4286022513,"ano":"2014"},{"id":"3f2fbd91-5556-46e8-a001-de173308bfe0","region":"REGION MAGALLANES Y DE LA ANTARTICA CHILENA","nombre":"RETEN PAMPA GUANACO (F)","tipo_unidad":"RETEN","latitude":-54.049263841,"longitude":-68.802055439,"ano":"2014"},{"id":"2e7f0263-d9bc-4f29-a374-7b711296663f","region":"REGION MAGALLANES Y DE LA ANTARTICA CHILENA","nombre":"RETEN PUERTO EDEN","tipo_unidad":"RETEN","latitude":-49.1287173457,"longitude":-74.4288650552,"ano":"2014"},{"id":"99197f91-8d0d-49aa-a1d9-100bbc374730","region":"REGION MAGALLANES Y DE LA ANTARTICA CHILENA","nombre":"RETEN PUERTO TORO (F)","tipo_unidad":"RETEN","latitude":-55.0832828262,"longitude":-67.0745797015,"ano":"2014"},{"id":"98446fd0-3a34-4f87-8931-1af688b323f5","region":"REGION MAGALLANES Y DE LA ANTARTICA CHILENA","nombre":"SCOM. RIO SECO","tipo_unidad":"SUBCOMISARIA","latitude":-53.05536928,"longitude":-70.861107078,"ano":"2014"},{"id":"f72c9717-249f-486a-adb0-b23ec875a346","region":"REGION MAGALLANES Y DE LA ANTARTICA CHILENA","nombre":"RETEN TENIENTE HERNAN MERINO CORREA (F)","tipo_unidad":"RETEN","latitude":-52.025626823,"longitude":-70.734905278,"ano":"2014"},{"id":"145fc040-453c-4d84-912f-0a8e0d515706","region":"REGION MAGALLANES Y DE LA ANTARTICA CHILENA","nombre":"RETEN TORRES DEL PAINE (F)","tipo_unidad":"RETEN","latitude":-51.2592696162,"longitude":-72.3461064326,"ano":"2014"},{"id":"b52b6ec1-e10a-47dd-ac8b-164bffb96e3e","region":"REGION MAGALLANES Y DE LA ANTARTICA CHILENA","nombre":"RETEN VILLA TEHUELCHES","tipo_unidad":"RETEN","latitude":-52.4278214695,"longitude":-71.4157500685,"ano":"2014"},{"id":"25f93c3a-d55e-448e-b19b-4507b459e8f7","region":"REGION MAGALLANES Y DE LA ANTARTICA CHILENA","nombre":"SCOM. CASAS VIEJAS (F)","tipo_unidad":"SUBCOMISARIA","latitude":-51.6995085486,"longitude":-72.3285617495,"ano":"2014"},{"id":"78a24f4d-e33b-432c-9678-4c03f8fe2aa6","region":"REGION MAGALLANES Y DE LA ANTARTICA CHILENA","nombre":"4TA. COM. PUERTO WILLIAMS (F)","tipo_unidad":"COMISARIA","latitude":-54.9340278119,"longitude":-67.5986904475,"ano":"2014"},{"id":"688338c2-15ee-4f26-a85e-fdfa5f62ad72","region":"REGION MAGALLANES Y DE LA ANTARTICA CHILENA","nombre":"TCIA. CERRO SOMBRERO (F)","tipo_unidad":"TENENCIA","latitude":-52.7724801602,"longitude":-69.2875055004,"ano":"2014"},{"id":"7a59a112-c5ba-4a8d-9342-0501ff25c81a","region":"REGION MAGALLANES Y DE LA ANTARTICA CHILENA","nombre":"PUESTO DE CONTROL CARRETERO KON AIKEN","tipo_unidad":"PUESTO DE CONTROL","latitude":-52.916356,"longitude":-70.903148,"ano":"2014"},{"id":"15759d75-74f1-4136-a01f-f6f9f7ab0e11","region":"REGION MAGALLANES Y DE LA ANTARTICA CHILENA","nombre":"TCIA. MONTE AYMOND (F)","tipo_unidad":"TENENCIA","latitude":-52.1457220105,"longitude":-69.5170851487,"ano":"2014"},{"id":"60fc2e05-2b35-4e9e-b1c9-ddd9161b8e5c","region":"REGION MAGALLANES Y DE LA ANTARTICA CHILENA","nombre":"TCIA. SAN SEBASTIAN (F)","tipo_unidad":"TENENCIA","latitude":-53.3211699594,"longitude":-68.6608942892,"ano":"2014"},{"id":"74d498fa-5adf-4d7d-b437-bf5f76f95755","region":"REGION MAGALLANES Y DE LA ANTARTICA CHILENA","nombre":"TCIA. YENDEGAIA (F)","tipo_unidad":"TENENCIA","latitude":-54.8665420698,"longitude":-68.69049756,"ano":"2014"},{"id":"ceecfdbc-8c67-414a-9501-580b1548188c","region":"REGION AISEN DEL GENERAL CARLOS IBANEZ DEL CAMPO","nombre":"1RA. COM. COYHAIQUE","tipo_unidad":"COMISARIA","latitude":-45.5698539149,"longitude":-72.0638653572,"ano":"2014"},{"id":"734dff55-220e-4dc0-b229-1df789cc84f7","region":"REGION AISEN DEL GENERAL CARLOS IBANEZ DEL CAMPO","nombre":"2DA. COM. PUERTO AYSEN","tipo_unidad":"COMISARIA","latitude":-45.4060533348,"longitude":-72.6972013846,"ano":"2014"},{"id":"b7b7f67c-63b8-4879-a68b-2ff645d77912","region":"REGION AISEN DEL GENERAL CARLOS IBANEZ DEL CAMPO","nombre":"3RA. COM. CHILE CHICO (F)","tipo_unidad":"COMISARIA","latitude":-46.5399518494,"longitude":-71.7243004498,"ano":"2014"},{"id":"cb823cac-fcd2-4b33-884e-8195d9a77794","region":"REGION AISEN DEL GENERAL CARLOS IBANEZ DEL CAMPO","nombre":"4TA. COM. COCHRANE (F)","tipo_unidad":"COMISARIA","latitude":-47.253341948,"longitude":-72.571997276,"ano":"2014"},{"id":"13599173-2a25-4818-a618-6389371ba7bb","region":"REGION AISEN DEL GENERAL CARLOS IBANEZ DEL CAMPO","nombre":"RETEN CALETA TORTEL","tipo_unidad":"RETEN","latitude":-47.8019411136,"longitude":-73.5379055896,"ano":"2014"},{"id":"dd9dfd21-33a8-4567-83f4-88c00ccf5a75","region":"REGION AISEN DEL GENERAL CARLOS IBANEZ DEL CAMPO","nombre":"SCOM. EL BLANCO (M.C.)","tipo_unidad":"SUBCOMISARIA","latitude":-45.8086597443,"longitude":-71.9182889734,"ano":"2014"},{"id":"4bb5a04a-8858-40d1-b11c-ea30d9f4a23e","region":"REGION AISEN DEL GENERAL CARLOS IBANEZ DEL CAMPO","nombre":"RETEN ENTRADA BAKER (F)","tipo_unidad":"RETEN","latitude":-47.183777129,"longitude":-71.973790613,"ano":"2014"},{"id":"109dbb19-5ea3-4098-8270-1e24d9d6868a","region":"REGION AISEN DEL GENERAL CARLOS IBANEZ DEL CAMPO","nombre":"RETEN LAGO CASTOR (F)","tipo_unidad":"RETEN","latitude":-45.5812750252,"longitude":-71.7441225484,"ano":"2014"},{"id":"9b7f4434-3c3d-427d-ada6-30b79826c555","region":"REGION AISEN DEL GENERAL CARLOS IBANEZ DEL CAMPO","nombre":"RETEN LAGO VERDE (F)","tipo_unidad":"RETEN","latitude":-44.2397199996,"longitude":-71.8499999985,"ano":"2014"},{"id":"fd94dcef-9c87-44f2-a402-c229375e21c3","region":"REGION AISEN DEL GENERAL CARLOS IBANEZ DEL CAMPO","nombre":"RETEN MELINKA","tipo_unidad":"RETEN","latitude":-43.896667663,"longitude":-73.74803617,"ano":"2014"},{"id":"83439a46-7b3b-4b07-93a1-91418ea11855","region":"REGION AISEN DEL GENERAL CARLOS IBANEZ DEL CAMPO","nombre":"RETEN PUERTO AGUIRRE","tipo_unidad":"RETEN","latitude":-45.1643316733,"longitude":-73.5231114731,"ano":"2014"},{"id":"d292dc83-290c-4c88-b1e8-6fe2b9851ea9","region":"REGION AISEN DEL GENERAL CARLOS IBANEZ DEL CAMPO","nombre":"RETEN PUERTO CHACABUCO (M.A.)","tipo_unidad":"RETEN","latitude":-45.4615475238,"longitude":-72.8192369995,"ano":"2014"},{"id":"f0656e7e-903a-4bd5-bd0f-994593d1b68f","region":"REGION AISEN DEL GENERAL CARLOS IBANEZ DEL CAMPO","nombre":"RETEN PUERTO GUADAL","tipo_unidad":"RETEN","latitude":-46.8445737338,"longitude":-72.7014423631,"ano":"2014"},{"id":"66caa38f-64b4-4b06-a016-da29963c776f","region":"REGION AISEN DEL GENERAL CARLOS IBANEZ DEL CAMPO","nombre":"RETEN PUESTO VIEJO (F)","tipo_unidad":"RETEN","latitude":-45.2689900725,"longitude":-71.7136225069,"ano":"2014"},{"id":"faef9d2e-86f1-42ff-8a01-f6e30764c301","region":"REGION AISEN DEL GENERAL CARLOS IBANEZ DEL CAMPO","nombre":"RETEN PUYUHUAPI","tipo_unidad":"RETEN","latitude":-44.324892,"longitude":-72.558077,"ano":"2014"},{"id":"d62f4318-61a0-4938-9c5e-5aa969bad48d","region":"REGION AISEN DEL GENERAL CARLOS IBANEZ DEL CAMPO","nombre":"RETEN RAUL MARIN BALMACEDA","tipo_unidad":"RETEN","latitude":-43.7763622691,"longitude":-72.9516615559,"ano":"2014"},{"id":"eafc1681-a5cc-4f2b-9113-ff0cd5baffdb","region":"REGION AISEN DEL GENERAL CARLOS IBANEZ DEL CAMPO","nombre":"RETEN RIO CISNES (F)","tipo_unidad":"RETEN","latitude":-44.497637472,"longitude":-71.307179597,"ano":"2014"},{"id":"a47c5978-6cb3-4e15-a240-198168e3d161","region":"REGION AISEN DEL GENERAL CARLOS IBANEZ DEL CAMPO","nombre":"RETEN RIO TRANQUILO","tipo_unidad":"RETEN","latitude":-46.626767784,"longitude":-72.6755609264,"ano":"2014"},{"id":"8b7bcb06-f26d-4414-a006-5393ca8a9f67","region":"REGION AISEN DEL GENERAL CARLOS IBANEZ DEL CAMPO","nombre":"RETEN VILLA MANIHUALES","tipo_unidad":"RETEN","latitude":-45.17759956,"longitude":-72.149949023,"ano":"2014"},{"id":"0fbb05fc-5975-4d7b-bf84-a26382a267bd","region":"REGION AISEN DEL GENERAL CARLOS IBANEZ DEL CAMPO","nombre":"RETEN VILLA ORTEGA","tipo_unidad":"RETEN","latitude":-45.3727955254,"longitude":-71.9962006011,"ano":"2014"},{"id":"9da688f2-ae52-4a9c-a6e3-a48ad3954760","region":"REGION AISEN DEL GENERAL CARLOS IBANEZ DEL CAMPO","nombre":"SCOM. VILLA OHIGGINS (F)","tipo_unidad":"SUBCOMISARIA","latitude":-48.4707373313,"longitude":-72.5603710044,"ano":"2014"},{"id":"6e2d7ade-0330-4e89-acc6-b822036156e2","region":"REGION AISEN DEL GENERAL CARLOS IBANEZ DEL CAMPO","nombre":"TCIA. BALMACEDA (F)","tipo_unidad":"TENENCIA","latitude":-45.9103373427,"longitude":-71.6923796231,"ano":"2014"},{"id":"b072dd2e-c936-437e-85f8-7a23f869b339","region":"REGION AISEN DEL GENERAL CARLOS IBANEZ DEL CAMPO","nombre":"TCIA. COYHAIQUE ALTO (F)","tipo_unidad":"TENENCIA","latitude":-45.4804883788,"longitude":-71.6041575773,"ano":"2014"},{"id":"86c9fe23-8415-4d5a-80da-340aa1df32b7","region":"REGION AISEN DEL GENERAL CARLOS IBANEZ DEL CAMPO","nombre":"TCIA. LA JUNTA","tipo_unidad":"TENENCIA","latitude":-43.972269187,"longitude":-72.402005844,"ano":"2014"},{"id":"d07db39f-6ecb-4e57-8d2c-a3a99172d0ec","region":"REGION AISEN DEL GENERAL CARLOS IBANEZ DEL CAMPO","nombre":"SCOM. PUERTO CISNES","tipo_unidad":"SUBCOMISARIA","latitude":-44.7272811096,"longitude":-72.6829685857,"ano":"2014"},{"id":"68c42910-69e2-41ac-bfc8-d0b43cbeecd6","region":"REGION AISEN DEL GENERAL CARLOS IBANEZ DEL CAMPO","nombre":"TCIA. PUERTO INGENIERO IBANEZ (F)","tipo_unidad":"TENENCIA","latitude":-46.2942928781,"longitude":-71.9329894711,"ano":"2014"},{"id":"ab3d0297-ef9a-49ec-817c-ebd489759bde","region":"REGION AISEN DEL GENERAL CARLOS IBANEZ DEL CAMPO","nombre":"TCIA. RIO MAYER (F)","tipo_unidad":"TENENCIA","latitude":-48.20982097,"longitude":-72.323156101,"ano":"2014"},{"id":"248d3ba2-25a5-43c6-bc23-ff7bd91403f7","region":"REGION AISEN DEL GENERAL CARLOS IBANEZ DEL CAMPO","nombre":"TCIA. TTE. HERNAN MERINO CORREA (F)","tipo_unidad":"TENENCIA","latitude":-48.8693750328,"longitude":-72.7422333217,"ano":"2014"},{"id":"e2f87653-532f-4e4a-8bca-2c659719faab","region":"REGION AISEN DEL GENERAL CARLOS IBANEZ DEL CAMPO","nombre":"RETEN VILLA LA TAPERA (F)","tipo_unidad":"RETEN","latitude":-44.6467850423,"longitude":-71.6712507795,"ano":"2014"},{"id":"18367b62-a250-42d9-b8dd-6ba159870fd5","region":"REGION LOS LAGOS","nombre":"4TA. COM. CALBUCO","tipo_unidad":"COMISARIA","latitude":-41.7720417766,"longitude":-73.1276596645,"ano":"2014"},{"id":"98f477af-9054-478f-b203-5aacf7e9105b","region":"REGION LOS LAGOS","nombre":"1RA. COM. ANCUD","tipo_unidad":"COMISARIA","latitude":-41.8654097433,"longitude":-73.8268949782,"ano":"2014"},{"id":"c3b66eec-f168-4b97-becc-729c232b7824","region":"REGION LOS LAGOS","nombre":"1RA. COM. OSORNO U","tipo_unidad":"COMISARIA","latitude":-40.5772210187,"longitude":-73.1261652531,"ano":"2014"},{"id":"f9d80041-ce0a-42c7-b505-17422c5302e3","region":"REGION LOS LAGOS","nombre":"1RA. COM. PUERTO VARAS","tipo_unidad":"COMISARIA","latitude":-41.3163490273,"longitude":-72.9843184428,"ano":"2014"},{"id":"a7349aba-9e06-4179-98b8-55a3b559bffe","region":"REGION LOS LAGOS","nombre":"2DA. COM. CASTRO","tipo_unidad":"COMISARIA","latitude":-42.4827976117,"longitude":-73.7658000664,"ano":"2014"},{"id":"897a03d5-e861-4290-b801-1bcd23a23a13","region":"REGION LOS LAGOS","nombre":"2DA. COM. PTO. MONTT","tipo_unidad":"COMISARIA","latitude":-41.4673667505,"longitude":-72.9432491496,"ano":"2014"},{"id":"d9b52abe-0e42-4e35-85b0-08e70f54fa5e","region":"REGION LOS LAGOS","nombre":"2DA. COM. RIO NEGRO","tipo_unidad":"COMISARIA","latitude":-40.7992513237,"longitude":-73.2180316135,"ano":"2014"},{"id":"6aab90ea-9a1f-4490-85d0-d7551f24ee55","region":"REGION LOS LAGOS","nombre":"3RA. COM. FUTALEUFU (F)","tipo_unidad":"COMISARIA","latitude":-43.1863737456,"longitude":-71.8672612672,"ano":"2014"},{"id":"f5dc45a1-74e8-4715-9c0b-6e67987f781a","region":"REGION LOS LAGOS","nombre":"3RA. COM. MAULLIN","tipo_unidad":"COMISARIA","latitude":-41.6211412665,"longitude":-73.5945879371,"ano":"2014"},{"id":"f111eb5f-549c-4512-9b4e-2e63c113bcd4","region":"REGION LOS LAGOS","nombre":"SCOM. RAHUE","tipo_unidad":"SUBCOMISARIA","latitude":-40.5747767519,"longitude":-73.1502353268,"ano":"2014"},{"id":"03974728-e0cc-4970-8ab9-1f9295aee596","region":"REGION LOS LAGOS","nombre":"4TA. COM. CHAITEN (F)","tipo_unidad":"COMISARIA","latitude":-42.9160644736,"longitude":-72.7094278151,"ano":"2014"},{"id":"8d712a37-9906-4afa-8a93-eaca4227c3de","region":"REGION LOS LAGOS","nombre":"5TA. COM. PALENA (F)","tipo_unidad":"COMISARIA","latitude":-43.6183772111,"longitude":-71.8035078384,"ano":"2014"},{"id":"f9eeb265-e178-43ca-b8bb-1a5366273bb4","region":"REGION LOS LAGOS","nombre":"5TA. COM. PTO. MONTT S.U.","tipo_unidad":"COMISARIA","latitude":-41.4603278784,"longitude":-72.952300921,"ano":"2014"},{"id":"ad18c69f-e7e5-47ce-8f89-da93304ff5cc","region":"REGION LOS LAGOS","nombre":"RETEN AYACARA (F)","tipo_unidad":"RETEN","latitude":-42.3184512851,"longitude":-72.7879396427,"ano":"2014"},{"id":"63583dc4-6110-469d-b84c-d856523e61e9","region":"REGION LOS LAGOS","nombre":"RETEN BAHIA MANSA","tipo_unidad":"RETEN","latitude":-40.5807195063,"longitude":-73.7334001015,"ano":"2014"},{"id":"31811c0b-ec95-454a-9aab-0369305a28e7","region":"REGION LOS LAGOS","nombre":"RETEN CANCURA","tipo_unidad":"RETEN","latitude":-40.7594599354,"longitude":-72.9673075997,"ano":"2014"},{"id":"ce287cf3-351d-41bc-8232-90c3b439840a","region":"REGION LOS LAGOS","nombre":"RETEN CANUTILLAR","tipo_unidad":"RETEN","latitude":-41.4960671634,"longitude":-72.3350029017,"ano":"2014"},{"id":"7e229530-8537-496d-8725-a5859740862c","region":"REGION LOS LAGOS","nombre":"RETEN CASMA","tipo_unidad":"RETEN","latitude":-41.0102799134,"longitude":-73.1240405037,"ano":"2014"},{"id":"8c2f4a3d-2a58-4756-a7be-30f59d7cfb48","region":"REGION LOS LAGOS","nombre":"RETEN COCHAMO","tipo_unidad":"RETEN","latitude":-41.4931871605,"longitude":-72.3038532792,"ano":"2014"},{"id":"0ec83002-9ce3-45ad-9bb3-0640b4bc28da","region":"REGION LOS LAGOS","nombre":"RETEN CONTAO","tipo_unidad":"RETEN","latitude":-41.8039925584,"longitude":-72.7195193127,"ano":"2014"},{"id":"50cf41b1-38a6-45f3-8cca-3938d52fdc63","region":"REGION LOS LAGOS","nombre":"RETEN PIEDRA AZUL","tipo_unidad":"RETEN","latitude":-41.4926488414,"longitude":-72.8164821982,"ano":"2014"},{"id":"5720a46d-2fbd-462f-b184-2e463740c6eb","region":"REGION LOS LAGOS","nombre":"RETEN CORTE ALTO","tipo_unidad":"RETEN","latitude":-40.9514518263,"longitude":-73.1616591285,"ano":"2014"},{"id":"cb3f15ba-e9c4-4216-8b9e-0eff0c57424a","region":"REGION LOS LAGOS","nombre":"RETEN CRUCERO","tipo_unidad":"RETEN","latitude":-40.925175017,"longitude":-73.349362073,"ano":"2014"},{"id":"87b8361d-1512-41d2-a009-c74fc8e48d29","region":"REGION LOS LAGOS","nombre":"RETEN CURACO DE VELEZ","tipo_unidad":"RETEN","latitude":-42.4388611711,"longitude":-73.5953187206,"ano":"2014"},{"id":"655bbb64-505d-4de7-aaa8-c0d41a5da3c0","region":"REGION LOS LAGOS","nombre":"RETEN ELEUTERIO RAMIREZ","tipo_unidad":"RETEN","latitude":-40.5918056204,"longitude":-72.9501610287,"ano":"2014"},{"id":"a982e4ce-30f6-4542-bba5-785ebdf094b7","region":"REGION LOS LAGOS","nombre":"RETEN ISLA GUAR","tipo_unidad":"RETEN","latitude":-41.6680471494,"longitude":-72.9800010617,"ano":"2014"},{"id":"578d4410-e431-4c78-888d-e041bb795f6f","region":"REGION LOS LAGOS","nombre":"RETEN ISLA PULUQUI","tipo_unidad":"RETEN","latitude":-41.7974280034,"longitude":-73.0371650247,"ano":"2014"},{"id":"7dffc26b-2582-472a-8ba2-4ad9cf3c6581","region":"REGION LOS LAGOS","nombre":"RETEN ISLA QUENAC","tipo_unidad":"RETEN","latitude":-42.4580802794,"longitude":-73.3315053737,"ano":"2014"},{"id":"74a746c4-017a-49c4-8b64-0970234a64ab","region":"REGION LOS LAGOS","nombre":"RETEN LA PASADA","tipo_unidad":"RETEN","latitude":-41.6034075214,"longitude":-73.5989928167,"ano":"2014"},{"id":"0c6c7d75-7fa5-49e7-b155-ce0b7e7d44b3","region":"REGION LOS LAGOS","nombre":"RETEN LAS CASCADAS","tipo_unidad":"RETEN","latitude":-41.0831241924,"longitude":-72.6367685747,"ano":"2014"},{"id":"82747c2f-b857-4ce1-bba8-8cbb6c98ac8b","region":"REGION LOS LAGOS","nombre":"RETEN LLANADA GRANDE (F)","tipo_unidad":"RETEN","latitude":-41.8697664724,"longitude":-71.9429770577,"ano":"2014"},{"id":"7d552579-660c-4a71-b1ae-11774c165ce8","region":"REGION LOS LAGOS","nombre":"RETEN LONCOTORO","tipo_unidad":"RETEN","latitude":-41.2945669214,"longitude":-73.2132861847,"ano":"2014"},{"id":"9823da12-0a1f-46c8-8088-91a308fd8942","region":"REGION LOS LAGOS","nombre":"RETEN LOS PELLINES","tipo_unidad":"RETEN","latitude":-41.190419895,"longitude":-73.069736225,"ano":"2014"},{"id":"e8d5a71b-18f4-4ddf-ade8-6567289b5fb2","region":"REGION LOS LAGOS","nombre":"RETEN MECHUQUE","tipo_unidad":"RETEN","latitude":-42.3143360294,"longitude":-73.2692150507,"ano":"2014"},{"id":"98bdd1c2-b849-43eb-b760-faa482572caa","region":"REGION LOS LAGOS","nombre":"RETEN NUEVA BRAUNAU","tipo_unidad":"RETEN","latitude":-41.3258082891,"longitude":-73.0792678929,"ano":"2014"},{"id":"188980fc-4605-4877-897b-7ee6b76cc9f4","region":"REGION LOS LAGOS","nombre":"RETEN OLMOPULLI","tipo_unidad":"RETEN","latitude":-41.5938910574,"longitude":-73.4059958837,"ano":"2014"},{"id":"d2d5a0fd-b37a-414c-a2ed-cc21894f8b40","region":"REGION LOS LAGOS","nombre":"RETEN OVEJERIA","tipo_unidad":"RETEN","latitude":-40.5908476023,"longitude":-73.1451890208,"ano":"2014"},{"id":"ce23c2ef-3401-4303-814c-f775527e3ac6","region":"REGION LOS LAGOS","nombre":"RETEN PAMPA ALEGRE","tipo_unidad":"RETEN","latitude":-40.5646234473,"longitude":-73.152554443,"ano":"2014"},{"id":"eee64475-158c-425b-9d56-1b3c955c2751","region":"REGION LOS LAGOS","nombre":"TCIA. PANITAO (M.C.)","tipo_unidad":"TENENCIA","latitude":-41.5222292121,"longitude":-73.0889758192,"ano":"2014"},{"id":"2ed2aabd-eb3e-4b83-8265-2158f075c573","region":"REGION LOS LAGOS","nombre":"RETEN PARAGUAY CHICO","tipo_unidad":"RETEN","latitude":-41.4118999654,"longitude":-73.2863945477,"ano":"2014"},{"id":"ad1d779d-475d-4afe-ae67-d1f13bfb45f1","region":"REGION LOS LAGOS","nombre":"RETEN PARGA","tipo_unidad":"RETEN","latitude":-41.2200941629,"longitude":-73.4902095642,"ano":"2014"},{"id":"30d74e1d-bc58-4d71-9269-3cac92313741","region":"REGION LOS LAGOS","nombre":"RETEN PARGUA","tipo_unidad":"RETEN","latitude":-41.791280516,"longitude":-73.460409701,"ano":"2014"},{"id":"2036e7dd-829d-49cd-bcf6-74ae4eb2c091","region":"REGION LOS LAGOS","nombre":"RETEN PASO BOLSON (F)","tipo_unidad":"RETEN","latitude":-42.0815686934,"longitude":-71.8067495957,"ano":"2014"},{"id":"014a5a84-3649-45ae-99e3-d5ce9ad9f5a3","region":"REGION LOS LAGOS","nombre":"RETEN PASO EL LEON (F)","tipo_unidad":"RETEN","latitude":-41.5035657664,"longitude":-71.8572075397,"ano":"2014"},{"id":"b8a153a6-56c9-48c9-ad08-6c06cbd3747f","region":"REGION LOS LAGOS","nombre":"RETEN PUQUELDON","tipo_unidad":"RETEN","latitude":-42.6003267914,"longitude":-73.6766932337,"ano":"2014"},{"id":"3eaff1c9-dd98-4b48-ba18-e01def0eb6ac","region":"REGION LOS LAGOS","nombre":"RETEN QUEILEN","tipo_unidad":"RETEN","latitude":-42.891036134,"longitude":-73.476083037,"ano":"2014"},{"id":"506d6419-6979-4b53-9b8f-7ac82d16fdcd","region":"REGION LOS LAGOS","nombre":"RETEN QUEMCHI","tipo_unidad":"RETEN","latitude":-42.1439802072,"longitude":-73.4735240243,"ano":"2014"},{"id":"540dc81a-b7ea-4ed2-9c98-604efa411b14","region":"REGION LOS LAGOS","nombre":"RETEN QUENUIR","tipo_unidad":"RETEN","latitude":-41.5646460004,"longitude":-73.6786478377,"ano":"2014"},{"id":"9dc8d0ff-7d43-4764-a342-57d4f425ce5f","region":"REGION LOS LAGOS","nombre":"RETEN QUILACAHUIN","tipo_unidad":"RETEN","latitude":-40.376504445,"longitude":-73.26580521,"ano":"2014"},{"id":"6aebf6ee-b5d7-4dfd-b5fc-6eee1db787ac","region":"REGION LOS LAGOS","nombre":"RETEN RIACHUELO","tipo_unidad":"RETEN","latitude":-40.8205974746,"longitude":-73.3391271657,"ano":"2014"},{"id":"29554909-f15e-44b1-a856-68fea94ee19e","region":"REGION LOS LAGOS","nombre":"RETEN RIO FRIO","tipo_unidad":"RETEN","latitude":-41.299974142,"longitude":-73.451341341,"ano":"2014"},{"id":"a1d9349d-a07d-4e1d-87a0-9186193b2651","region":"REGION LOS LAGOS","nombre":"RETEN RIO PESCADO","tipo_unidad":"RETEN","latitude":-41.2534100092,"longitude":-72.7970641049,"ano":"2014"},{"id":"2c2f61fe-5e4c-4653-bc85-1db53ff120ac","region":"REGION LOS LAGOS","nombre":"RETEN RIO PUELO","tipo_unidad":"RETEN","latitude":-41.6594272164,"longitude":-72.3397213327,"ano":"2014"},{"id":"a24b5592-ca99-418f-9998-602e5395b2aa","region":"REGION LOS LAGOS","nombre":"RETEN RUPANCO","tipo_unidad":"RETEN","latitude":-40.8642343914,"longitude":-72.7191818667,"ano":"2014"},{"id":"1a04dc6e-a66a-40c5-a31b-d5b1789aff6b","region":"REGION LOS LAGOS","nombre":"RETEN SAN JUAN DE LA COSTA","tipo_unidad":"RETEN","latitude":-40.4993411874,"longitude":-73.3975779647,"ano":"2014"},{"id":"0a54d009-3530-4e1e-bd25-ddac18308e88","region":"REGION LOS LAGOS","nombre":"RETEN TEGUALDA","tipo_unidad":"RETEN","latitude":-41.0395720647,"longitude":-73.4078196824,"ano":"2014"},{"id":"36d67f33-acc3-4773-906f-c5f4eb1f35b6","region":"REGION LOS LAGOS","nombre":"RETEN TRUMAO","tipo_unidad":"RETEN","latitude":-40.3612004676,"longitude":-73.1653111307,"ano":"2014"},{"id":"df279a5e-2af0-4acf-a109-11c2fc823069","region":"REGION LOS LAGOS","nombre":"RETEN VALLE CALIFORNIA (F)","tipo_unidad":"RETEN","latitude":-43.6834677109,"longitude":-71.7086172472,"ano":"2014"},{"id":"8fa9754f-03d2-48a9-b699-e90089a61c68","region":"REGION LOS LAGOS","nombre":"RETEN VODUDAHUE (F)","tipo_unidad":"RETEN","latitude":-42.4905343104,"longitude":-72.3924391167,"ano":"2014"},{"id":"947f629c-4b56-4975-8578-6ebae33fd04c","region":"REGION LOS LAGOS","nombre":"SCOM. ACHAO","tipo_unidad":"SUBCOMISARIA","latitude":-42.471691214,"longitude":-73.4930514538,"ano":"2014"},{"id":"b8045fac-9d55-4656-8fdf-01a8e6141987","region":"REGION LOS LAGOS","nombre":"SCOM. FRUTILLAR","tipo_unidad":"SUBCOMISARIA","latitude":-41.1288344239,"longitude":-73.0526776679,"ano":"2014"},{"id":"6786d9f7-ddf5-40eb-a86d-f6958c93bff0","region":"REGION LOS LAGOS","nombre":"SCOM. LLANQUIHUE","tipo_unidad":"SUBCOMISARIA","latitude":-41.2689836948,"longitude":-72.9997539906,"ano":"2014"},{"id":"8010949c-9b9f-4d27-8481-85890aeec5df","region":"REGION LOS LAGOS","nombre":"7MA. COM. MIRASOL","tipo_unidad":"COMISARIA","latitude":-41.4751451387,"longitude":-72.9839860563,"ano":"2014"},{"id":"5b06927a-e2c8-4920-9dc2-bb654d642f94","region":"REGION LOS LAGOS","nombre":"SCOM. PURRANQUE","tipo_unidad":"SUBCOMISARIA","latitude":-40.9145224647,"longitude":-73.1632059962,"ano":"2014"},{"id":"83a26dbc-f5e1-4ce7-bcdf-948016ecb744","region":"REGION LOS LAGOS","nombre":"6TA. COM. QUELLON","tipo_unidad":"COMISARIA","latitude":-43.1170820584,"longitude":-73.6215898108,"ano":"2014"},{"id":"c7743bc2-f085-4f44-b4e6-e3e6240edc21","region":"REGION LOS LAGOS","nombre":"3RA. COM. OSORNO","tipo_unidad":"COMISARIA","latitude":-40.5824164042,"longitude":-73.1664948471,"ano":"2014"},{"id":"9936ba65-2708-479c-a990-26513ae4f041","region":"REGION LOS LAGOS","nombre":"6TA. COM. ALERCE (S.U.)","tipo_unidad":"COMISARIA","latitude":-41.3980281285,"longitude":-72.9032043993,"ano":"2014"},{"id":"07905001-ab1a-428e-bc57-87157f2d0813","region":"REGION LOS LAGOS","nombre":"TCIA. CARELMAPU","tipo_unidad":"TENENCIA","latitude":-41.745883627,"longitude":-73.706519682,"ano":"2014"},{"id":"254d3cb6-5800-44ce-87f2-a19fbe564c53","region":"REGION LOS LAGOS","nombre":"SCOM.I.A.T. Y CARRET. LLANQUIHUE","tipo_unidad":"SUBCOMISARIA CARRETERAS","latitude":-41.3573254724,"longitude":-72.9802550577,"ano":"2014"},{"id":"26f1aea4-881a-438e-8b04-4845aae623c2","region":"REGION LOS LAGOS","nombre":"SCOM.I.A.T. Y CARRET. OSORNO","tipo_unidad":"SUBCOMISARIA CARRETERAS","latitude":-40.6405008954,"longitude":-73.1162589217,"ano":"2014"},{"id":"03d87089-cc95-43b7-8d0c-a2ff8622e0ed","region":"REGION LOS LAGOS","nombre":"TCIA. CASA PANGUE (F)","tipo_unidad":"TENENCIA","latitude":-41.0478456714,"longitude":-71.8777406947,"ano":"2014"},{"id":"8be7d7e7-ffa0-40ab-a866-5a0ae111b14f","region":"REGION LOS LAGOS","nombre":"TCIA. CHACAO (M)","tipo_unidad":"TENENCIA","latitude":-41.8295880438,"longitude":-73.5250604369,"ano":"2014"},{"id":"ee2d24bc-b520-4452-bdf3-555c92844ecc","region":"REGION LOS LAGOS","nombre":"TCIA. CHILOE (M.C)","tipo_unidad":"TENENCIA","latitude":-42.1413958372,"longitude":-73.7223848912,"ano":"2014"},{"id":"b5afc333-f9f6-4282-979b-9a586eba9a35","region":"REGION LOS LAGOS","nombre":"TCIA. CHONCHI","tipo_unidad":"TENENCIA","latitude":-42.6207033685,"longitude":-73.7742166018,"ano":"2014"},{"id":"85996a8f-f3c8-421e-94c0-45c97df0e77b","region":"REGION LOS LAGOS","nombre":"TCIA. DALCAHUE","tipo_unidad":"TENENCIA","latitude":-42.3789724225,"longitude":-73.6528127725,"ano":"2014"},{"id":"85503074-28d7-4cd2-828f-3d124731c1dd","region":"REGION LOS LAGOS","nombre":"TCIA. EL LIMITE (F)","tipo_unidad":"TENENCIA","latitude":-43.1767713034,"longitude":-71.7586420067,"ano":"2014"},{"id":"4380720a-a44a-47fe-9ec8-466a6e5396b1","region":"REGION LOS LAGOS","nombre":"TCIA. ENSENADA","tipo_unidad":"TENENCIA","latitude":-41.2084831234,"longitude":-72.5386319147,"ano":"2014"},{"id":"261f62c5-3bfe-45c7-ba93-e385faaa287b","region":"REGION LOS LAGOS","nombre":"TCIA. ENTRE LAGOS","tipo_unidad":"TENENCIA","latitude":-40.6860027558,"longitude":-72.6043440436,"ano":"2014"},{"id":"d6dc468b-96a7-4b37-97a1-e4abe4cf1864","region":"REGION LOS LAGOS","nombre":"TCIA. FRESIA","tipo_unidad":"TENENCIA","latitude":-41.1536566002,"longitude":-73.4173555224,"ano":"2014"},{"id":"d4107491-3eb8-4b24-bcb3-296708e351f2","region":"REGION LOS LAGOS","nombre":"TCIA. HORNOPIREN (F)","tipo_unidad":"TENENCIA","latitude":-41.9668185454,"longitude":-72.4718471337,"ano":"2014"},{"id":"7ca8e376-5490-42a1-8bb0-a8dc1d8877c0","region":"REGION LOS LAGOS","nombre":"TCIA. LAS QUEMAS","tipo_unidad":"TENENCIA","latitude":-41.4021911844,"longitude":-73.1812460027,"ano":"2014"},{"id":"fee09b00-a8a8-4fa7-a686-201ce1fc48ce","region":"REGION LOS LAGOS","nombre":"SCOM. LOS MUERMOS","tipo_unidad":"SUBCOMISARIA","latitude":-41.3946342556,"longitude":-73.4660179679,"ano":"2014"},{"id":"d15b4100-d78a-4a80-b5f1-38c6933d4f01","region":"REGION LOS LAGOS","nombre":"TCIA. PAJARITOS (F)","tipo_unidad":"TENENCIA","latitude":-40.7082324764,"longitude":-71.9538031127,"ano":"2014"},{"id":"b1cb2d01-c07d-4b88-a4ec-d45c79de8ca2","region":"REGION LOS LAGOS","nombre":"TCIA. PUERTO OCTAY","tipo_unidad":"TENENCIA","latitude":-40.9708895014,"longitude":-72.8839006257,"ano":"2014"},{"id":"5e712e15-133f-4f71-843b-563a9b9d7c63","region":"REGION LOS LAGOS","nombre":"SCOM. RELONCAVI","tipo_unidad":"SUBCOMISARIA","latitude":-41.4736173479,"longitude":-72.9106194532,"ano":"2014"},{"id":"a56fccab-0f19-4ad2-bd17-8d4ff15a477f","region":"REGION LOS LAGOS","nombre":"TCIA. RIO ENCUENTRO (F)","tipo_unidad":"TENENCIA","latitude":-43.5934567952,"longitude":-71.7127422757,"ano":"2014"},{"id":"8e41f412-ef71-49c5-8fb4-314822582846","region":"REGION LOS LAGOS","nombre":"TCIA. SAN PABLO","tipo_unidad":"TENENCIA","latitude":-40.411176039,"longitude":-73.0082134623,"ano":"2014"},{"id":"3eb21687-58a7-48bd-8850-b32eb0fd15ee","region":"REGION LA ARAUCANIA","nombre":"SCOM. LONQUIMAY (F)","tipo_unidad":"SUBCOMISARIA","latitude":-38.4531993024,"longitude":-71.3707100048,"ano":"2014"},{"id":"b9c30a81-abc1-4cb0-ae1f-3675bde49965","region":"REGION LA ARAUCANIA","nombre":"1RA. COM. ANGOL","tipo_unidad":"COMISARIA","latitude":-37.799317,"longitude":-72.712858,"ano":"2014"},{"id":"d502730b-2f25-4a33-b194-80dd002f34a8","region":"REGION LA ARAUCANIA","nombre":"1RA. COM. LAUTARO","tipo_unidad":"COMISARIA","latitude":-38.5255796696,"longitude":-72.4367160535,"ano":"2014"},{"id":"9efce593-5c93-47b8-95b5-49da6f7bbc13","region":"REGION LA ARAUCANIA","nombre":"2DA. COM. COLLIPULLI","tipo_unidad":"COMISARIA","latitude":-37.9578452941,"longitude":-72.4330016219,"ano":"2014"},{"id":"a6e5b470-f95a-40e0-ac0f-465af43548b3","region":"REGION LA ARAUCANIA","nombre":"2DA. COM. TEMUCO","tipo_unidad":"COMISARIA","latitude":-38.74043,"longitude":-72.58463,"ano":"2014"},{"id":"9eac6869-4bb8-48c8-934b-5563bb0b1593","region":"REGION LA ARAUCANIA","nombre":"3RA. COM. PADRE LAS CASAS","tipo_unidad":"COMISARIA","latitude":-38.75825,"longitude":-72.59288,"ano":"2014"},{"id":"f59bbf79-ddc7-48bc-a2e7-2cc193382664","region":"REGION LA ARAUCANIA","nombre":"3RA. COM. TRAIGUEN","tipo_unidad":"COMISARIA","latitude":-38.2461022596,"longitude":-72.6659931355,"ano":"2014"},{"id":"2c29953e-5d5b-4ddf-9f0f-d99c8c71dccf","region":"REGION LA ARAUCANIA","nombre":"4TA. COM. NVA. IMPERIAL","tipo_unidad":"COMISARIA","latitude":-38.7422375617,"longitude":-72.9525487125,"ano":"2014"},{"id":"bdc62c0e-64e3-4cdc-ac8d-2326c635c7bf","region":"REGION LA ARAUCANIA","nombre":"4TA. COM. VICTORIA","tipo_unidad":"COMISARIA","latitude":-38.2364790435,"longitude":-72.335885964,"ano":"2014"},{"id":"35a718ca-6569-46a9-9510-f93f32fce5ec","region":"REGION LA ARAUCANIA","nombre":"5TA. COM. CURACAUTIN","tipo_unidad":"COMISARIA","latitude":-38.4388856127,"longitude":-71.8833877305,"ano":"2014"},{"id":"fad53085-860f-4437-8efa-5b6a47d84e22","region":"REGION LA ARAUCANIA","nombre":"5TA. COM. PITRUFQUEN","tipo_unidad":"COMISARIA","latitude":-38.9867362695,"longitude":-72.6321751634,"ano":"2014"},{"id":"91aa0500-e8c3-46ce-b602-51a0b28e686b","region":"REGION LA ARAUCANIA","nombre":"6TA. COM. LONCOCHE","tipo_unidad":"COMISARIA","latitude":-39.3720381852,"longitude":-72.635822074,"ano":"2014"},{"id":"de057e44-7e0a-4428-9a8b-25ba865d7c3d","region":"REGION LA ARAUCANIA","nombre":"7MA. COM. VILLARRICA","tipo_unidad":"COMISARIA","latitude":-39.291186166,"longitude":-72.2222953597,"ano":"2014"},{"id":"f711da1d-bf3f-4f77-8c37-9d62f3e4be4c","region":"REGION LA ARAUCANIA","nombre":"8VA. COM. TEMUCO","tipo_unidad":"COMISARIA","latitude":-38.73249,"longitude":-72.64039,"ano":"2014"},{"id":"aa65d9fc-7efc-4475-85ca-bc1865ae06af","region":"REGION LA ARAUCANIA","nombre":"9NA. COM. PUCON","tipo_unidad":"COMISARIA","latitude":-39.2773333289,"longitude":-71.9777382389,"ano":"2014"},{"id":"9882e230-6bba-47de-9e69-1cbf1fa8fac6","region":"REGION LA ARAUCANIA","nombre":"RETEN BARROS ARANA","tipo_unidad":"RETEN","latitude":-38.986789,"longitude":-72.924718,"ano":"2014"},{"id":"367d2ee0-ade2-44f9-a323-cc0d940b4d9b","region":"REGION LA ARAUCANIA","nombre":"RETEN CAJON","tipo_unidad":"RETEN","latitude":-38.6775541866,"longitude":-72.5049938131,"ano":"2014"},{"id":"44ad5479-317d-4396-9d21-325eb72a1440","region":"REGION LA ARAUCANIA","nombre":"RETEN CATRIPULLI","tipo_unidad":"RETEN","latitude":-39.347496776,"longitude":-71.706090112,"ano":"2014"},{"id":"b3ab9dc5-29c3-4725-9c29-8e786afe5900","region":"REGION LA ARAUCANIA","nombre":"RETEN CHERQUENCO","tipo_unidad":"RETEN","latitude":-38.6855029409,"longitude":-72.0025823046,"ano":"2014"},{"id":"704b6594-54a5-48f0-b3de-4bc052b8f80c","region":"REGION LA ARAUCANIA","nombre":"RETEN CHOLCHOL","tipo_unidad":"RETEN","latitude":-38.6016543918,"longitude":-72.8461766686,"ano":"2014"},{"id":"ae351ec7-107e-4e24-b14e-799d88f33b57","region":"REGION LA ARAUCANIA","nombre":"RETEN COMUY","tipo_unidad":"RETEN","latitude":-39.023872274,"longitude":-72.966714156,"ano":"2014"},{"id":"e2208bfb-e3fa-4f6b-a32f-eff775920c23","region":"REGION LA ARAUCANIA","nombre":"RETEN CURACO","tipo_unidad":"RETEN","latitude":-38.020251461,"longitude":-72.355474019,"ano":"2014"},{"id":"84ae385d-53ef-4293-a4a6-6079d3ecc478","region":"REGION LA ARAUCANIA","nombre":"RETEN DOLLINCO","tipo_unidad":"RETEN","latitude":-38.484910101,"longitude":-72.147596627,"ano":"2014"},{"id":"b318b693-fd68-4c13-88cf-d21851311ae9","region":"REGION LA ARAUCANIA","nombre":"RETEN ESPERANZA","tipo_unidad":"RETEN","latitude":-37.844951033,"longitude":-72.393775945,"ano":"2014"},{"id":"d9a0c036-6486-43ee-bc2d-ebd589923e69","region":"REGION LA ARAUCANIA","nombre":"RETEN HUALPIN","tipo_unidad":"RETEN","latitude":-39.0881522474,"longitude":-73.1807506874,"ano":"2014"},{"id":"a77b83ed-149e-48b3-947d-6aae4d74101e","region":"REGION LA ARAUCANIA","nombre":"RETEN HUISCAPI","tipo_unidad":"RETEN","latitude":-39.29537,"longitude":-72.400405,"ano":"2014"},{"id":"cfc3f29f-84bc-4816-91b5-397ff307b9ed","region":"REGION LA ARAUCANIA","nombre":"RETEN ICALMA (F)","tipo_unidad":"RETEN","latitude":-38.811442038,"longitude":-71.282469483,"ano":"2014"},{"id":"01d2df9c-c660-47f5-abde-67123d357f1d","region":"REGION LA ARAUCANIA","nombre":"RETEN LA PAZ","tipo_unidad":"RETEN","latitude":-39.4097644151,"longitude":-72.7103189243,"ano":"2014"},{"id":"9d0e28aa-54fe-49b5-b448-c136da02fe6b","region":"REGION LA ARAUCANIA","nombre":"RETEN LAS HORTENSIAS","tipo_unidad":"RETEN","latitude":-38.940901128,"longitude":-72.151997926,"ano":"2014"},{"id":"b515ebd8-ecca-47f3-971e-39eb1757b0d6","region":"REGION LA ARAUCANIA","nombre":"RETEN LASTARRIA","tipo_unidad":"RETEN","latitude":-39.234991383,"longitude":-72.677731653,"ano":"2014"},{"id":"64a5b395-5bc1-49cc-b762-aebd805ae91c","region":"REGION LA ARAUCANIA","nombre":"RETEN LICAN RAY","tipo_unidad":"RETEN","latitude":-39.48753828,"longitude":-72.160503755,"ano":"2014"},{"id":"76b4d339-e247-4a1f-8593-bd18b2daf994","region":"REGION LA ARAUCANIA","nombre":"RETEN LOS LAURELES","tipo_unidad":"RETEN","latitude":-38.990367914,"longitude":-72.246838029,"ano":"2014"},{"id":"287ee18a-ef73-4c55-87d0-e8aadd914e80","region":"REGION LA ARAUCANIA","nombre":"RETEN LUMACO","tipo_unidad":"RETEN","latitude":-38.1672378259,"longitude":-72.9036111725,"ano":"2014"},{"id":"bbbe4e93-c165-400f-ab93-c015e8ce9da3","region":"REGION LA ARAUCANIA","nombre":"RETEN MALALCAHUELLO","tipo_unidad":"RETEN","latitude":-38.4739774,"longitude":-71.581917719,"ano":"2014"},{"id":"9c990d09-9af5-4a09-b2b8-b1ed1eed0efb","region":"REGION LA ARAUCANIA","nombre":"RETEN MANZANAR","tipo_unidad":"RETEN","latitude":-38.4667495001,"longitude":-71.7011266904,"ano":"2014"},{"id":"f482bb58-35e1-4eb2-a7bb-22265d2a5416","region":"REGION LA ARAUCANIA","nombre":"RETEN MELIPEUCO (F)","tipo_unidad":"RETEN","latitude":-38.8557087603,"longitude":-71.7013397465,"ano":"2014"},{"id":"a28fae42-d569-4aad-83a7-97e911c786f9","region":"REGION LA ARAUCANIA","nombre":"RETEN MININCO","tipo_unidad":"RETEN","latitude":-37.7970994237,"longitude":-72.4702750819,"ano":"2014"},{"id":"0d69547b-635a-4a80-8130-11c3469d666d","region":"REGION LA ARAUCANIA","nombre":"RETEN NEHUENTUE","tipo_unidad":"RETEN","latitude":-38.7453168138,"longitude":-73.4087522619,"ano":"2014"},{"id":"29836216-1f68-4043-9f92-dd30a4fd9d10","region":"REGION LA ARAUCANIA","nombre":"RETEN PAILAHUEQUE","tipo_unidad":"RETEN","latitude":-38.1355151731,"longitude":-72.3155082978,"ano":"2014"},{"id":"ced5bd5b-4b61-49a7-ba09-953b4d093f7c","region":"REGION LA ARAUCANIA","nombre":"RETEN PERQUENCO","tipo_unidad":"RETEN","latitude":-38.419817773,"longitude":-72.377359451,"ano":"2014"},{"id":"36fcb15e-3673-4976-823a-de846eef49d7","region":"REGION LA ARAUCANIA","nombre":"RETEN PICHI-PELLAHUEN","tipo_unidad":"RETEN","latitude":-38.325002,"longitude":-73.000162,"ano":"2014"},{"id":"75a386d2-908f-4c70-9173-22d96a11f500","region":"REGION LA ARAUCANIA","nombre":"RETEN PILLANLELBUN","tipo_unidad":"RETEN","latitude":-38.6343749964,"longitude":-72.4513934407,"ano":"2014"},{"id":"bfc97c1f-98e0-41f2-87cb-b6423456e402","region":"REGION LA ARAUCANIA","nombre":"RETEN PUA","tipo_unidad":"RETEN","latitude":-38.3364970767,"longitude":-72.3756645466,"ano":"2014"},{"id":"a5f9e4f9-0ee4-476c-8b24-7752a7408574","region":"REGION LA ARAUCANIA","nombre":"RETEN PUERTO DOMINGUEZ","tipo_unidad":"RETEN","latitude":-38.8970445094,"longitude":-73.2553644639,"ano":"2014"},{"id":"7ce3181f-d8cd-4d06-a616-999260edc565","region":"REGION LA ARAUCANIA","nombre":"RETEN QUEPE","tipo_unidad":"RETEN","latitude":-38.8671919392,"longitude":-72.613440197,"ano":"2014"},{"id":"830e7466-93d2-4c9f-9b1f-ffd52d05720b","region":"REGION LA ARAUCANIA","nombre":"RETEN QUEULE","tipo_unidad":"RETEN","latitude":-39.397719,"longitude":-73.209915,"ano":"2014"},{"id":"fef595bd-c10f-4750-af08-3961729ee7a2","region":"REGION LA ARAUCANIA","nombre":"RETEN QUILQUEN","tipo_unidad":"RETEN","latitude":-38.109743,"longitude":-72.708731,"ano":"2014"},{"id":"f0cbf654-f979-4042-8968-3325f10c5c23","region":"REGION LA ARAUCANIA","nombre":"RETEN QUITRATUE","tipo_unidad":"RETEN","latitude":-39.154868989,"longitude":-72.658829693,"ano":"2014"},{"id":"99ddf4a3-380b-48f7-a479-56e4aad06e78","region":"REGION LA ARAUCANIA","nombre":"RETEN RADAL","tipo_unidad":"RETEN","latitude":-38.98397934,"longitude":-72.392446392,"ano":"2014"},{"id":"93788092-ca6b-47b8-bd23-a1aa8f16fcfb","region":"REGION LA ARAUCANIA","nombre":"RETEN REIGOLIL (F)","tipo_unidad":"RETEN","latitude":-39.116442,"longitude":-71.474103,"ano":"2014"},{"id":"5647ba1d-240d-45d5-93b5-6293b486458e","region":"REGION LA ARAUCANIA","nombre":"RETEN SAN PATRICIO","tipo_unidad":"RETEN","latitude":-38.6612127716,"longitude":-72.1220997498,"ano":"2014"},{"id":"656a4a9d-0ba6-47a1-acca-888ad38f9086","region":"REGION LA ARAUCANIA","nombre":"RETEN SELVA OSCURA","tipo_unidad":"RETEN","latitude":-38.3680166193,"longitude":-72.1653717464,"ano":"2014"},{"id":"d1451096-6eb5-4244-bc75-34f6e6407e86","region":"REGION LA ARAUCANIA","nombre":"RETEN SIERRA NEVADA","tipo_unidad":"RETEN","latitude":-38.5632955996,"longitude":-71.4756286742,"ano":"2014"},{"id":"369e72ca-5f07-4e8e-9837-3bc97808cca5","region":"REGION LA ARAUCANIA","nombre":"TCIA. TEODORO SCHMIDT","tipo_unidad":"TENENCIA","latitude":-38.9934748044,"longitude":-73.0855356974,"ano":"2014"},{"id":"27278974-3eb8-43e5-bab0-a095b4ae139b","region":"REGION LA ARAUCANIA","nombre":"RETEN TIJERAL","tipo_unidad":"RETEN","latitude":-37.7338744643,"longitude":-72.6129565609,"ano":"2014"},{"id":"7925a7de-86c8-4624-98ed-743014f5bd92","region":"REGION LA ARAUCANIA","nombre":"RETEN TROVOLHUE","tipo_unidad":"RETEN","latitude":-38.630789308,"longitude":-73.3142896743,"ano":"2014"},{"id":"5e822dd0-5f2f-40ff-9c20-ecc9d1ce89dc","region":"REGION LA ARAUCANIA","nombre":"RETEN TROYO (F)","tipo_unidad":"RETEN","latitude":-38.25368,"longitude":-71.305199,"ano":"2014"},{"id":"9e3913ab-c21d-48de-b821-a168174c12fc","region":"REGION LA ARAUCANIA","nombre":"SCOM. CARAHUE","tipo_unidad":"SUBCOMISARIA","latitude":-38.711155934,"longitude":-73.168493934,"ano":"2014"},{"id":"bd711634-e73d-4d08-8257-b2fe6e1c9114","region":"REGION LA ARAUCANIA","nombre":"SCOM. LOS SAUCES","tipo_unidad":"SUBCOMISARIA","latitude":-37.9811754151,"longitude":-72.834860402,"ano":"2014"},{"id":"0466517e-19b2-450e-a68a-b5fa11d10b2f","region":"REGION LA ARAUCANIA","nombre":"TCIA. CAPITAN PASTENE","tipo_unidad":"TENENCIA","latitude":-38.1895836382,"longitude":-72.990734143,"ano":"2014"},{"id":"5c884911-fa0f-4511-a448-676302000424","region":"REGION LA ARAUCANIA","nombre":"TCIA. CARRET. CAUTIN SUR","tipo_unidad":"TENENCIA CARRETERAS","latitude":-39.356065,"longitude":-72.58347,"ano":"2014"},{"id":"b782b78e-bbea-403c-acb2-ff8620009979","region":"REGION LA ARAUCANIA","nombre":"TCIA. CARRET. MALLECO","tipo_unidad":"TENENCIA CARRETERAS","latitude":-38.272839004,"longitude":-72.363876917,"ano":"2014"},{"id":"3189d05d-fee8-4b54-9742-5b480b27138b","region":"REGION LA ARAUCANIA","nombre":"SCOM. I.A.T. CARRET. CAUTIN NORTE","tipo_unidad":"SUBCOMISARIA CARRETERAS","latitude":-38.625106,"longitude":-72.455074,"ano":"2014"},{"id":"0e7b1594-14a6-44d0-9737-6606e1cafa74","region":"REGION LA ARAUCANIA","nombre":"SCOM. CUNCO","tipo_unidad":"SUBCOMISARIA","latitude":-38.9318285797,"longitude":-72.0354795136,"ano":"2014"},{"id":"900b1939-f62a-4f2d-88aa-210a2175605d","region":"REGION LA ARAUCANIA","nombre":"TCIA. CURARREHUE (F)","tipo_unidad":"TENENCIA","latitude":-39.359462982,"longitude":-71.587532176,"ano":"2014"},{"id":"e531f3c4-5336-41ce-9a6b-2a52ebbc999b","region":"REGION LA ARAUCANIA","nombre":"SCOM. ERCILLA","tipo_unidad":"SUBCOMISARIA","latitude":-38.0646701384,"longitude":-72.378830201,"ano":"2014"},{"id":"918731ee-7c04-43e1-b071-a3e74e819ca9","region":"REGION LA ARAUCANIA","nombre":"TCIA. FREIRE","tipo_unidad":"TENENCIA","latitude":-38.9515596624,"longitude":-72.6234165725,"ano":"2014"},{"id":"9820ab21-2a66-4d7a-916b-dd9521eb5597","region":"REGION LA ARAUCANIA","nombre":"TCIA. GALVARINO","tipo_unidad":"TENENCIA","latitude":-38.4107551533,"longitude":-72.7829267628,"ano":"2014"},{"id":"e06822a2-ea4f-4cc3-9cdb-77cf7165a7c3","region":"REGION LA ARAUCANIA","nombre":"TCIA. GORBEA","tipo_unidad":"TENENCIA","latitude":-39.0975928822,"longitude":-72.6715990393,"ano":"2014"},{"id":"bc1b0b06-dc72-40f4-929b-6ddde23ca654","region":"REGION LA ARAUCANIA","nombre":"TCIA. LABRANZA","tipo_unidad":"TENENCIA","latitude":-38.766196376,"longitude":-72.752456622,"ano":"2014"},{"id":"97e5a149-e4fc-49ea-b922-159ee7ae37d1","region":"REGION LA ARAUCANIA","nombre":"TCIA. LIUCURA (F)","tipo_unidad":"TENENCIA","latitude":-38.645098936,"longitude":-71.09009837,"ano":"2014"},{"id":"632ec73b-851c-423d-9ba1-c1058194b798","region":"REGION LA ARAUCANIA","nombre":"TCIA. PUERTO SAAVEDRA","tipo_unidad":"TENENCIA","latitude":-38.785039275,"longitude":-73.397756741,"ano":"2014"},{"id":"a999699c-ce1b-4fbf-a068-db3d9fe92454","region":"REGION LA ARAUCANIA","nombre":"TCIA. PUREN","tipo_unidad":"TENENCIA","latitude":-38.0335944995,"longitude":-73.0703821685,"ano":"2014"},{"id":"63be8c41-a8c3-4eb8-9570-00c6f0980079","region":"REGION LA ARAUCANIA","nombre":"TCIA. RENAICO","tipo_unidad":"TENENCIA","latitude":-37.670724,"longitude":-72.589867,"ano":"2014"},{"id":"c3fdb33e-fb15-4eef-9472-93290f879e05","region":"REGION LA ARAUCANIA","nombre":"TCIA. TOLTEN","tipo_unidad":"TENENCIA","latitude":-39.1771366606,"longitude":-73.1694256424,"ano":"2014"},{"id":"f2e0f5ab-13df-4664-822b-6bf7947501fe","region":"REGION LA ARAUCANIA","nombre":"TCIA. VILCUN","tipo_unidad":"TENENCIA","latitude":-38.6713015135,"longitude":-72.2247836675,"ano":"2014"},{"id":"b6190ad2-6ff7-4a94-b2c4-28f2eee52c46","region":"REGION BIO BIO","nombre":"RETEN NINQUIHUE","tipo_unidad":"RETEN","latitude":-36.4775535514,"longitude":-72.0141215218,"ano":"2014"},{"id":"42d7fb24-5a5e-4b57-ab54-21f6fa405ecd","region":"REGION BIO BIO","nombre":"RETEN SAN NICOLAS","tipo_unidad":"RETEN","latitude":-36.5029827582,"longitude":-72.2135877328,"ano":"2014"},{"id":"2af4a7de-6ac3-4ed0-811c-5b50b5c6450e","region":"REGION BIO BIO","nombre":"RETEN VILLUCURA","tipo_unidad":"RETEN","latitude":-37.5555194053,"longitude":-71.9120066834,"ano":"2014"},{"id":"41482529-6e72-49c5-bb31-273b219c8d20","region":"REGION BIO BIO","nombre":"1RA. COM. ARAUCO","tipo_unidad":"COMISARIA","latitude":-37.247371229,"longitude":-73.322677605,"ano":"2014"},{"id":"c2c27eef-36a9-41b1-91fc-cff67271944f","region":"REGION BIO BIO","nombre":"1RA. COM. CONCEPCION","tipo_unidad":"COMISARIA","latitude":-36.830742,"longitude":-73.055258,"ano":"2014"},{"id":"a7071db1-cd9f-4707-8bb4-26a6caf8a7df","region":"REGION BIO BIO","nombre":"1RA. COM. LOS ANGELES","tipo_unidad":"COMISARIA","latitude":-37.4722621864,"longitude":-72.3513109006,"ano":"2014"},{"id":"cfc135ca-4c7b-4e77-8a19-c84ec245b244","region":"REGION BIO BIO","nombre":"1RA. COM. SAN CARLOS","tipo_unidad":"COMISARIA","latitude":-36.4235209903,"longitude":-71.9626384556,"ano":"2014"},{"id":"f4c8ebb1-e80f-420b-b362-1c031756d108","region":"REGION BIO BIO","nombre":"1RA. COM. TOME","tipo_unidad":"COMISARIA","latitude":-36.6183711744,"longitude":-72.9565035016,"ano":"2014"},{"id":"8a86cb5b-6126-45c9-8edf-02438b40eede","region":"REGION BIO BIO","nombre":"2DA. COM. CHILLAN","tipo_unidad":"COMISARIA","latitude":-36.6039414023,"longitude":-72.1053052237,"ano":"2014"},{"id":"5d5b2ece-0844-4b76-8122-32add152c523","region":"REGION BIO BIO","nombre":"4TA. COM. CORONEL","tipo_unidad":"COMISARIA","latitude":-37.0297236983,"longitude":-73.1459488982,"ano":"2014"},{"id":"e49ecd40-a214-4bea-903a-8f0e103029ff","region":"REGION BIO BIO","nombre":"2DA. COM. LEBU","tipo_unidad":"COMISARIA","latitude":-37.611781619,"longitude":-73.6561623248,"ano":"2014"},{"id":"1f0f73c0-3a80-4441-b366-25d62fa563ac","region":"REGION BIO BIO","nombre":"2DA. COM. MULCHEN","tipo_unidad":"COMISARIA","latitude":-37.719095764,"longitude":-72.2370758201,"ano":"2014"},{"id":"82a5a044-3b6b-4179-a473-6655b6896b6e","region":"REGION BIO BIO","nombre":"TCIA. HIGUERAS","tipo_unidad":"TENENCIA","latitude":-36.7464825661,"longitude":-73.1017874946,"ano":"2014"},{"id":"de180ed0-fe6f-4502-a35b-bf42bb6d00af","region":"REGION BIO BIO","nombre":"3RA. COM. BULNES","tipo_unidad":"COMISARIA","latitude":-36.7445395202,"longitude":-72.2900839382,"ano":"2014"},{"id":"bc751ebf-8e19-464c-8583-2aefc1c7f9f8","region":"REGION BIO BIO","nombre":"3RA. COM. CANETE","tipo_unidad":"COMISARIA","latitude":-37.800134951,"longitude":-73.3996276204,"ano":"2014"},{"id":"3ac19a8c-cf67-43e7-b1d3-906eb984cbed","region":"REGION BIO BIO","nombre":"3RA. COM. LOTA","tipo_unidad":"COMISARIA","latitude":-37.08862,"longitude":-73.15982,"ano":"2014"},{"id":"b8f95462-bae5-49c8-98bc-20bc41b90ae0","region":"REGION BIO BIO","nombre":"3RA. COM. NACIMIENTO","tipo_unidad":"COMISARIA","latitude":-37.5018696289,"longitude":-72.6683240179,"ano":"2014"},{"id":"96e48ccf-64bc-49ef-a106-78b709768531","region":"REGION BIO BIO","nombre":"3RA. COM. PENCO","tipo_unidad":"COMISARIA","latitude":-36.7395838019,"longitude":-72.9937358949,"ano":"2014"},{"id":"7b3ccb89-f4a6-4239-a9a7-54490cf0976c","region":"REGION BIO BIO","nombre":"4TA. COM. CURANILAHUE","tipo_unidad":"COMISARIA","latitude":-37.4740258756,"longitude":-73.3446694267,"ano":"2014"},{"id":"be29c507-2a9a-4207-9d5f-f4d926ead1e5","region":"REGION BIO BIO","nombre":"4TA. COM. HUALPEN","tipo_unidad":"COMISARIA","latitude":-36.7828125247,"longitude":-73.1020287815,"ano":"2014"},{"id":"69fc6f5f-75fa-445f-9617-37912f9f4f50","region":"REGION BIO BIO","nombre":"2DA. COM. CONCEPCION","tipo_unidad":"COMISARIA","latitude":-36.8114458628,"longitude":-73.0509914141,"ano":"2014"},{"id":"979ae2cc-24c5-4152-993f-8c08950066e2","region":"REGION BIO BIO","nombre":"4TA. COM. STA. BARBARA","tipo_unidad":"COMISARIA","latitude":-37.670136403,"longitude":-72.0265832803,"ano":"2014"},{"id":"fdf79fce-ed5a-47fb-9893-de5e4106b98c","region":"REGION BIO BIO","nombre":"4TA. COM. YUNGAY","tipo_unidad":"COMISARIA","latitude":-37.1179643853,"longitude":-72.0194460505,"ano":"2014"},{"id":"5c43cba3-d081-484f-aa56-a0dd9c08cf51","region":"REGION BIO BIO","nombre":"5TA. COM. QUIRIHUE","tipo_unidad":"COMISARIA","latitude":-36.2818641909,"longitude":-72.5398278891,"ano":"2014"},{"id":"ceb5c890-2a01-4872-b9ad-1e218615082e","region":"REGION BIO BIO","nombre":"5TA. COM. YUMBEL","tipo_unidad":"COMISARIA","latitude":-37.1006118981,"longitude":-72.5627860019,"ano":"2014"},{"id":"12fcef59-2910-4315-ad7e-fc0ade7e78ee","region":"REGION BIO BIO","nombre":"6TA. COM. CHILLAN VIEJO (S.U.)","tipo_unidad":"COMISARIA","latitude":-36.621604801,"longitude":-72.1340295518,"ano":"2014"},{"id":"fda8b05e-127c-45e3-8b86-e69347a03318","region":"REGION BIO BIO","nombre":"AVANZADA CUATRO JUNTAS","tipo_unidad":"AVANZADA","latitude":-37.216173028,"longitude":-71.320510213,"ano":"2014"},{"id":"965e453c-f04d-4e52-b891-28768134d212","region":"REGION BIO BIO","nombre":"AVANZADA GUAYALI","tipo_unidad":"AVANZADA","latitude":-37.93819653,"longitude":-71.208347035,"ano":"2014"},{"id":"0dad100b-7f13-4d81-8701-38ecf90ee59e","region":"REGION BIO BIO","nombre":"AVANZADA LOS BARROS","tipo_unidad":"AVANZADA","latitude":-37.468657843,"longitude":-71.320348987,"ano":"2014"},{"id":"0186ad31-4509-4b95-891f-552dc4d9725b","region":"REGION BIO BIO","nombre":"AVANZADA LOS COLUMPIOS (T.F.)","tipo_unidad":"AVANZADA","latitude":-37.1100199604,"longitude":-71.2440057942,"ano":"2014"},{"id":"df6a94a9-7232-459f-a7e5-8c4b52092aa1","region":"REGION BIO BIO","nombre":"AVANZADA PICHIRRINCON (T.F.)","tipo_unidad":"AVANZADA","latitude":-36.577570444,"longitude":-71.236449525,"ano":"2014"},{"id":"b1cb70e3-2123-4f24-be32-762b573d5330","region":"REGION BIO BIO","nombre":"AVANZADA TRAPA-TRAPA","tipo_unidad":"AVANZADA","latitude":-37.7272099957,"longitude":-71.2281400005,"ano":"2014"},{"id":"5c2cdc79-c1ab-4721-9787-e63480009892","region":"REGION BIO BIO","nombre":"RETEN ANTIHUALA","tipo_unidad":"RETEN","latitude":-37.672,"longitude":-73.390734,"ano":"2014"},{"id":"84aaf30a-cdd4-4be9-8e15-575ee380e466","region":"REGION BIO BIO","nombre":"SCOM. CABO 1 RENE SEPULVEDA","tipo_unidad":"SUBCOMISARIA","latitude":-37.4630862128,"longitude":-72.3713746506,"ano":"2014"},{"id":"70c87f3f-e290-4bf8-97c3-93bab095fb9d","region":"REGION BIO BIO","nombre":"RETEN CACHAPOAL","tipo_unidad":"RETEN","latitude":-36.4555844223,"longitude":-71.7669658171,"ano":"2014"},{"id":"322e50f7-35a4-47a4-b86a-88968b1560ec","region":"REGION BIO BIO","nombre":"RETEN CAMPANARIO","tipo_unidad":"RETEN","latitude":-37.1342620016,"longitude":-72.1885104176,"ano":"2014"},{"id":"e0c45e2e-d6d8-4666-a525-02ea53f3b024","region":"REGION BIO BIO","nombre":"RETEN CANTERAS","tipo_unidad":"RETEN","latitude":-37.4040861039,"longitude":-72.0138335461,"ano":"2014"},{"id":"7dd7c207-be39-42b1-a800-21732e5ad840","region":"REGION BIO BIO","nombre":"RETEN CARAMPANGUE","tipo_unidad":"RETEN","latitude":-37.25734893,"longitude":-73.243111524,"ano":"2014"},{"id":"a8b2f4c9-171a-49a9-98d7-6fb7f044834b","region":"REGION BIO BIO","nombre":"RETEN CATO","tipo_unidad":"RETEN","latitude":-36.543636,"longitude":-71.779693,"ano":"2014"},{"id":"0e6addc0-4ecf-4ca5-9e46-f6d1657ad9bc","region":"REGION BIO BIO","nombre":"RETEN CENTINELA","tipo_unidad":"RETEN","latitude":-37.1433148758,"longitude":-72.5384402839,"ano":"2014"},{"id":"c12a0e37-fcc7-408e-8165-052957210832","region":"REGION BIO BIO","nombre":"RETEN COBQUECURA","tipo_unidad":"RETEN","latitude":-36.130698579,"longitude":-72.794507133,"ano":"2014"},{"id":"7544b129-a0b0-425c-9fe6-d11f7277e884","region":"REGION BIO BIO","nombre":"RETEN COPIULEMU","tipo_unidad":"RETEN","latitude":-36.89549158,"longitude":-72.808245065,"ano":"2014"},{"id":"28d2d8a0-8984-4cea-b1fb-b9522cff2eac","region":"REGION BIO BIO","nombre":"RETEN DICHATO","tipo_unidad":"RETEN","latitude":-36.547957082,"longitude":-72.935763012,"ano":"2014"},{"id":"2d36305f-06ac-4c82-9624-fcbfaaafa012","region":"REGION BIO BIO","nombre":"RETEN EL ALAMO","tipo_unidad":"RETEN","latitude":-37.432242818,"longitude":-72.184624773,"ano":"2014"},{"id":"eddf3b97-af3e-4624-b9e0-367073a8bf82","region":"REGION BIO BIO","nombre":"RETEN GUARILIHUE","tipo_unidad":"RETEN","latitude":-36.569459955,"longitude":-72.699758937,"ano":"2014"},{"id":"31d236fe-2dee-4387-97ff-777a8b1f675f","region":"REGION BIO BIO","nombre":"RETEN ISLA MOCHA","tipo_unidad":"RETEN","latitude":-38.343408301,"longitude":-73.912562192,"ano":"2014"},{"id":"55c983a3-95e1-4231-bd2e-ac5cdbe1eb5d","region":"REGION BIO BIO","nombre":"RETEN ISLA SANTA MARIA","tipo_unidad":"RETEN","latitude":-37.043383178,"longitude":-73.511849033,"ano":"2014"},{"id":"96cd1990-d8fc-4646-b237-bd5517646690","region":"REGION BIO BIO","nombre":"RETEN LO ROJAS","tipo_unidad":"RETEN","latitude":-37.02337,"longitude":-73.16795,"ano":"2014"},{"id":"ca147647-72c3-469e-b721-1b9b9b7049e0","region":"REGION BIO BIO","nombre":"RETEN LONCOPANGUE","tipo_unidad":"RETEN","latitude":-37.768142,"longitude":-71.774117,"ano":"2014"},{"id":"0f758b1c-4b8e-4fa1-be5c-2d0706e3b517","region":"REGION BIO BIO","nombre":"RETEN MONTE AGUILA","tipo_unidad":"RETEN","latitude":-37.086259167,"longitude":-72.4415314256,"ano":"2014"},{"id":"8ac2e655-23a8-44d2-9341-488f4150266e","region":"REGION BIO BIO","nombre":"RETEN NINHUE","tipo_unidad":"RETEN","latitude":-36.394387159,"longitude":-72.397112821,"ano":"2014"},{"id":"c26832eb-22fb-4fea-b314-43ac2296558b","region":"REGION BIO BIO","nombre":"RETEN NIPAS","tipo_unidad":"RETEN","latitude":-36.6062017417,"longitude":-72.5340361242,"ano":"2014"},{"id":"ad104761-2135-4703-a2db-95ff05583c22","region":"REGION BIO BIO","nombre":"RETEN NIQUEN","tipo_unidad":"RETEN","latitude":-36.290731055,"longitude":-71.897135123,"ano":"2014"},{"id":"389d4f4b-5f4b-4f04-874b-5754d183b440","region":"REGION BIO BIO","nombre":"RETEN POLCURA","tipo_unidad":"RETEN","latitude":-37.2866153048,"longitude":-71.7248167507,"ano":"2014"},{"id":"418e4989-a2a3-4c4f-9f7d-b0bc8e5be7e0","region":"REGION BIO BIO","nombre":"RETEN PORTEZUELO","tipo_unidad":"RETEN","latitude":-36.527994444,"longitude":-72.427063636,"ano":"2014"},{"id":"abdae3a5-ec02-4aa4-badb-46c3a470e12d","region":"REGION BIO BIO","nombre":"RETEN QUILACO","tipo_unidad":"RETEN","latitude":-37.6843524202,"longitude":-72.004654058,"ano":"2014"},{"id":"1b0bbfa5-7950-4038-99e1-8d6519f1f15d","region":"REGION BIO BIO","nombre":"RETEN QUILACOYA","tipo_unidad":"RETEN","latitude":-37.0538732486,"longitude":-72.9625168332,"ano":"2014"},{"id":"6ba189de-0083-4eed-b5e4-dffa2f454067","region":"REGION BIO BIO","nombre":"RETEN QUILLECO","tipo_unidad":"RETEN","latitude":-37.4759366952,"longitude":-71.9820073457,"ano":"2014"},{"id":"0acb8b53-b209-4465-ab70-a066a5eac19e","region":"REGION BIO BIO","nombre":"RETEN QUINCHAMALI","tipo_unidad":"RETEN","latitude":-36.6511657639,"longitude":-72.413132255,"ano":"2014"},{"id":"d93b6e40-7510-4d3e-80f7-e8e7214cc21c","region":"REGION BIO BIO","nombre":"RETEN QUIRIQUINA","tipo_unidad":"RETEN","latitude":-36.8407253534,"longitude":-72.1013097665,"ano":"2014"},{"id":"4e04703c-97af-4f9c-92a7-d9f80dac2fae","region":"REGION BIO BIO","nombre":"RETEN RAFAEL","tipo_unidad":"RETEN","latitude":-36.6299815165,"longitude":-72.7941683888,"ano":"2014"},{"id":"a48ea138-6dfc-46e1-a193-cef289d63b07","region":"REGION BIO BIO","nombre":"RETEN RECINTO","tipo_unidad":"RETEN","latitude":-36.845685167,"longitude":-71.658156122,"ano":"2014"},{"id":"d7b269e5-db1d-4b23-8daf-42999c07059c","region":"REGION BIO BIO","nombre":"RETEN RERE","tipo_unidad":"RETEN","latitude":-37.132781927,"longitude":-72.728146711,"ano":"2014"},{"id":"67253efb-65cd-49e7-89c9-127cbce66aa8","region":"REGION BIO BIO","nombre":"RETEN RIO CLARO","tipo_unidad":"RETEN","latitude":-37.1988134899,"longitude":-72.6192352025,"ano":"2014"},{"id":"400c75fa-2360-420d-9c30-cde903a25fec","region":"REGION BIO BIO","nombre":"RETEN RUCALHUE","tipo_unidad":"RETEN","latitude":-37.7124808958,"longitude":-71.9044342211,"ano":"2014"},{"id":"a2459852-2bf0-447f-b3e0-5dc2b63f9cd2","region":"REGION BIO BIO","nombre":"RETEN RUCAPEQUEN","tipo_unidad":"RETEN","latitude":-36.672268941,"longitude":-72.279294166,"ano":"2014"},{"id":"30219c2f-3294-4a65-8eac-af8f7044fd5e","region":"REGION BIO BIO","nombre":"RETEN SALTO DEL LAJA","tipo_unidad":"RETEN","latitude":-37.1883617343,"longitude":-72.3926818761,"ano":"2014"},{"id":"9c0ebfe6-5b1a-408f-bfc1-773bbdde133e","region":"REGION BIO BIO","nombre":"RETEN SAN CARLOS DE PUREN","tipo_unidad":"RETEN","latitude":-37.5940673838,"longitude":-72.2776270444,"ano":"2014"},{"id":"24f4816a-c5c4-4dbb-ac92-ffaa1ca45ffa","region":"REGION BIO BIO","nombre":"RETEN SAN IGNACIO","tipo_unidad":"RETEN","latitude":-36.8020974399,"longitude":-72.0287742061,"ano":"2014"},{"id":"0d1e37f8-070f-47db-b63c-8eb740e3c9af","region":"REGION BIO BIO","nombre":"RETEN SAN MIGUEL","tipo_unidad":"RETEN","latitude":-36.81393927,"longitude":-71.967349032,"ano":"2014"},{"id":"b351db1b-47c6-4631-8e08-48c60a7cd4b0","region":"REGION BIO BIO","nombre":"RETEN SAN ROSENDO","tipo_unidad":"RETEN","latitude":-37.2634548438,"longitude":-72.7227117186,"ano":"2014"},{"id":"beea3f0c-72f8-489e-8ff6-571ca2c87115","region":"REGION BIO BIO","nombre":"RETEN SANTA CLARA","tipo_unidad":"RETEN","latitude":-36.8236326558,"longitude":-72.3288103515,"ano":"2014"},{"id":"c4959200-0fc8-49f1-a91a-f11bc65c56ef","region":"REGION BIO BIO","nombre":"RETEN SANTA FE","tipo_unidad":"RETEN","latitude":-37.4662451742,"longitude":-72.5833180681,"ano":"2014"},{"id":"c88ebc60-680e-46e8-91f0-cd109cea7e6e","region":"REGION BIO BIO","nombre":"RETEN TALCAMAVIDA","tipo_unidad":"RETEN","latitude":-37.1622001529,"longitude":-72.9063552864,"ano":"2014"},{"id":"ca4ef79e-3a67-4fb7-8fdc-b89f2085f3ed","region":"REGION BIO BIO","nombre":"RETEN TANILVORO","tipo_unidad":"RETEN","latitude":-36.7265063017,"longitude":-71.8209393867,"ano":"2014"},{"id":"d15db9f0-6f89-45c6-ac53-374afa3fb3d8","region":"REGION BIO BIO","nombre":"RETEN TOMECO","tipo_unidad":"RETEN","latitude":-36.9878225235,"longitude":-72.6249615304,"ano":"2014"},{"id":"40781bd0-8ab8-4fc0-85e1-76a4daa9221f","region":"REGION BIO BIO","nombre":"RETEN TREHUACO","tipo_unidad":"RETEN","latitude":-36.4306541248,"longitude":-72.6677224974,"ano":"2014"},{"id":"2f41f6c6-b116-430b-9e51-10b8c01eb71b","region":"REGION BIO BIO","nombre":"RETEN TRUPAN","tipo_unidad":"RETEN","latitude":-37.2763712307,"longitude":-71.8338216718,"ano":"2014"},{"id":"2372f95b-8639-40e2-95a2-76f5e551d2dd","region":"REGION BIO BIO","nombre":"RETEN TUCAPEL","tipo_unidad":"RETEN","latitude":-37.293094287,"longitude":-71.9515203927,"ano":"2014"},{"id":"bc122b1f-4186-4ee7-935f-c030be0793cc","region":"REGION BIO BIO","nombre":"RETEN VEGAS DE ITATA","tipo_unidad":"RETEN","latitude":-36.402093306,"longitude":-72.851070159,"ano":"2014"},{"id":"63ef4765-2aab-4dfe-952b-1c7cfd139d68","region":"REGION BIO BIO","nombre":"SCOM. CABRERO","tipo_unidad":"SUBCOMISARIA","latitude":-37.0376409396,"longitude":-72.4052265731,"ano":"2014"},{"id":"dddeed25-c4ea-4bd9-a510-da1549e44693","region":"REGION BIO BIO","nombre":"7MA. COM. CHIGUAYANTE","tipo_unidad":"COMISARIA","latitude":-36.9397137107,"longitude":-73.0268997236,"ano":"2014"},{"id":"5175138b-78c2-4385-a19f-bb287ddf5e60","region":"REGION BIO BIO","nombre":"SCOM. COELEMU","tipo_unidad":"SUBCOMISARIA","latitude":-36.486224107,"longitude":-72.7005271,"ano":"2014"},{"id":"305abe7d-f8b0-40ad-99bd-96d56f37c15c","region":"REGION BIO BIO","nombre":"SCOM. COIHUECO","tipo_unidad":"SUBCOMISARIA","latitude":-36.6288563097,"longitude":-71.8394143846,"ano":"2014"},{"id":"d96e3ae2-64fc-4765-a464-2c260d857a60","region":"REGION BIO BIO","nombre":"SCOM. HUAMBALI","tipo_unidad":"SUBCOMISARIA","latitude":-36.623989,"longitude":-72.098381,"ano":"2014"},{"id":"caec3c3e-7b70-482c-9ef1-a3902f4ca8dc","region":"REGION BIO BIO","nombre":"SCOM. LAJA","tipo_unidad":"SUBCOMISARIA","latitude":-37.2773905958,"longitude":-72.7165485109,"ano":"2014"},{"id":"509556d1-cc9c-4cbd-be48-d60248f19ce6","region":"REGION BIO BIO","nombre":"SCOM. PAILLIHUE","tipo_unidad":"SUBCOMISARIA","latitude":-37.4874559094,"longitude":-72.3424874058,"ano":"2014"},{"id":"125e996b-41a6-43c7-9bbe-d13137759982","region":"REGION BIO BIO","nombre":"SCOM. SAN FABIAN (F)","tipo_unidad":"SUBCOMISARIA","latitude":-36.559835646,"longitude":-71.548455629,"ano":"2014"},{"id":"3b9c5c3b-b204-48fa-99a6-b28acde83a17","region":"REGION BIO BIO","nombre":"TCIA. SAN PEDRO","tipo_unidad":"TENENCIA","latitude":-36.842275994,"longitude":-73.1132528516,"ano":"2014"},{"id":"f220c3c5-3029-4b2d-99e4-5ab05a2acdc9","region":"REGION BIO BIO","nombre":"SCOM. VILLA MORA","tipo_unidad":"SUBCOMISARIA","latitude":-37.0072427675,"longitude":-73.1588128995,"ano":"2014"},{"id":"5078cfb7-e2eb-43bf-a852-8d2ff4aed1d6","region":"REGION BIO BIO","nombre":"TCIA. ANTUCO (F)","tipo_unidad":"TENENCIA","latitude":-37.3290636735,"longitude":-71.6598788739,"ano":"2014"},{"id":"67d8b363-f666-4ffc-9763-42a1b5d27a5b","region":"REGION BIO BIO","nombre":"TCIA. BIO BIO (F)","tipo_unidad":"TENENCIA","latitude":-37.882419,"longitude":-71.636363,"ano":"2014"},{"id":"987f399f-8135-40bd-8496-bb681cf2df57","region":"REGION BIO BIO","nombre":"TCIA. CARRET. BIO BIO","tipo_unidad":"TENENCIA CARRETERAS","latitude":-37.545856462,"longitude":-72.308650963,"ano":"2014"},{"id":"092be9b7-65c1-4351-9270-07d3ed1ab885","region":"REGION BIO BIO","nombre":"TCIA. CARRET. LARAQUETE (M.C.)","tipo_unidad":"TENENCIA CARRETERAS","latitude":-37.167412,"longitude":-73.186455,"ano":"2014"},{"id":"67954332-a5c2-4b19-bdca-f4f1c6ebfb2d","region":"REGION BIO BIO","nombre":"TCIA. CENTENARIO","tipo_unidad":"TENENCIA","latitude":-37.4567873722,"longitude":-72.3452699,"ano":"2014"},{"id":"629a035f-e6c5-4125-87f5-435006298ce1","region":"REGION BIO BIO","nombre":"TCIA. CONTULMO","tipo_unidad":"TENENCIA","latitude":-38.006115,"longitude":-73.228649,"ano":"2014"},{"id":"cf4f12bb-9912-4439-8068-9ecac90596d4","region":"REGION BIO BIO","nombre":"TCIA. EL CARMEN","tipo_unidad":"TENENCIA","latitude":-36.898843051,"longitude":-72.0322458965,"ano":"2014"},{"id":"0591d3f6-53ca-44f3-9dd7-e8c61946abc1","region":"REGION BIO BIO","nombre":"TCIA. FLORIDA","tipo_unidad":"TENENCIA","latitude":-36.8264322058,"longitude":-72.6609100011,"ano":"2014"},{"id":"22a7fa89-19b3-49f8-901e-3ed2f6a2fdac","region":"REGION BIO BIO","nombre":"TCIA. HUALQUI","tipo_unidad":"TENENCIA","latitude":-36.9751673353,"longitude":-72.940637325,"ano":"2014"},{"id":"73dc017f-7376-4262-b654-8bc5d125d6de","region":"REGION BIO BIO","nombre":"TCIA. HUEPIL","tipo_unidad":"TENENCIA","latitude":-37.2435933344,"longitude":-71.9446894303,"ano":"2014"},{"id":"f680a161-c539-4394-8b25-6bd5e28ab8a3","region":"REGION BIO BIO","nombre":"SCOM. LAGUNILLAS CARAB. RODOLFO ORELLANA","tipo_unidad":"SUBCOMISARIA","latitude":-36.981581,"longitude":-73.15811,"ano":"2014"},{"id":"ce06ee11-7aad-4b70-9c1f-c7bbeacacfe9","region":"REGION BIO BIO","nombre":"TCIA. LAS TRANCAS (F)","tipo_unidad":"TENENCIA","latitude":-36.9111053097,"longitude":-71.4797243481,"ano":"2014"},{"id":"f9fb075a-7a45-40d4-a836-813bec09360b","region":"REGION BIO BIO","nombre":"TCIA. LIRQUEN","tipo_unidad":"TENENCIA","latitude":-36.714246613,"longitude":-72.9744560771,"ano":"2014"},{"id":"011d09ef-b8e3-47d7-b3d6-a585747932af","region":"REGION BIO BIO","nombre":"SCOM. LOS ALAMOS","tipo_unidad":"SUBCOMISARIA","latitude":-37.6274708492,"longitude":-73.458698575,"ano":"2014"},{"id":"f8eb7a51-2a21-4520-aa45-b71c48023724","region":"REGION BIO BIO","nombre":"TCIA. NEGRETE","tipo_unidad":"TENENCIA","latitude":-37.585171825,"longitude":-72.5273077085,"ano":"2014"},{"id":"c8c52943-6706-474a-948f-553baaeb736d","region":"REGION BIO BIO","nombre":"TCIA. PEMUCO","tipo_unidad":"TENENCIA","latitude":-36.9785875866,"longitude":-72.0972365022,"ano":"2014"},{"id":"be7f2ade-d10a-469d-82e9-092e06d6b4a7","region":"REGION BIO BIO","nombre":"TCIA. PINTO","tipo_unidad":"TENENCIA","latitude":-36.701984592,"longitude":-71.892680093,"ano":"2014"},{"id":"566f3e87-029c-4f3a-8181-ddb4383a4ad1","region":"REGION BIO BIO","nombre":"SCOM. QUILLON","tipo_unidad":"SUBCOMISARIA","latitude":-36.7435763525,"longitude":-72.4769124299,"ano":"2014"},